{"type":"FeatureCollection","features":[{"type":"Feature","geometry":{"coordinates":[-0.3752982847143531,39.473881223660634],"type":"Point"},"properties":{"address":"Plaza de la Reina - Mar","number":8,"open":"T","available":0,"free":9,"total":9,"ticket":"F","updated_at":"20\/12\/2024 17:19:51","geo_point_2d":{"lon":-0.3752982847143531,"lat":39.473881223660634},"update_jcd":1734715076}},{"type":"Feature","geometry":{"coordinates":[-0.38261041097634013,39.470816323984536],"type":"Point"},"properties":{"address":"Hospital - Horno del Hospital","number":10,"open":"T","available":0,"free":15,"total":15,"ticket":"F","updated_at":"20\/12\/2024 17:19:51","geo_point_2d":{"lon":-0.38261041097634013,"lat":39.470816323984536},"update_jcd":1734715148}},{"type":"Feature","geometry":{"coordinates":[-0.3526903171951741,39.459778273617445],"type":"Point"},"properties":{"address":"Plaza de Europa","number":54,"open":"T","available":17,"free":3,"total":20,"ticket":"F","updated_at":"20\/12\/2024 17:19:51","geo_point_2d":{"lon":-0.3526903171951741,"lat":39.459778273617445},"update_jcd":1734715015}},{"type":"Feature","geometry":{"coordinates":[-0.38586429939117395,39.46633523268935],"type":"Point"},"properties":{"address":"San Jos\u00e9 de Calasanz - Salas Quiroga","number":26,"open":"T","available":1,"free":14,"total":15,"ticket":"F","updated_at":"20\/12\/2024 17:19:51","geo_point_2d":{"lon":-0.38586429939117395,"lat":39.46633523268935},"update_jcd":1734715055}},{"type":"Feature","geometry":{"coordinates":[-0.34813930400480075,39.45676426141678],"type":"Point"},"properties":{"address":"Alameda - Pintor Maella","number":53,"open":"T","available":21,"free":4,"total":25,"ticket":"F","updated_at":"20\/12\/2024 17:19:51","geo_point_2d":{"lon":-0.34813930400480075,"lat":39.45676426141678},"update_jcd":1734714919}},{"type":"Feature","geometry":{"coordinates":[-0.3740102862977963,39.47196722343732],"type":"Point"},"properties":{"address":"Calle Salv\u00e1 - Calle Poeta Querol","number":12,"open":"T","available":5,"free":15,"total":20,"ticket":"F","updated_at":"20\/12\/2024 17:19:51","geo_point_2d":{"lon":-0.3740102862977963,"lat":39.47196722343732},"update_jcd":1734714707}},{"type":"Feature","geometry":{"coordinates":[-0.3767843903416451,39.47118632283677],"type":"Point"},"properties":{"address":"Plaza Ayuntamiento - Cotanda","number":11,"open":"T","available":10,"free":17,"total":27,"ticket":"F","updated_at":"20\/12\/2024 17:19:51","geo_point_2d":{"lon":-0.3767843903416451,"lat":39.47118632283677},"update_jcd":1734714924}},{"type":"Feature","geometry":{"coordinates":[-0.34868630411595647,39.45934326975421],"type":"Point"},"properties":{"address":"Francia - Pintor Maella","number":55,"open":"T","available":18,"free":7,"total":25,"ticket":"F","updated_at":"20\/12\/2024 17:19:51","geo_point_2d":{"lon":-0.34868630411595647,"lat":39.45934326975421},"update_jcd":1734714971}},{"type":"Feature","geometry":{"coordinates":[-0.36477635908979195,39.458912276426375],"type":"Point"},"properties":{"address":"General Urrutia - Granada","number":41,"open":"T","available":3,"free":17,"total":20,"ticket":"F","updated_at":"20\/12\/2024 17:19:51","geo_point_2d":{"lon":-0.36477635908979195,"lat":39.458912276426375},"update_jcd":1734714693}},{"type":"Feature","geometry":{"coordinates":[-0.3463402980947426,39.45603425797373],"type":"Point"},"properties":{"address":"Luis Garc\u00eda Berlanga Mart\u00ed - Menorca","number":52,"open":"T","available":4,"free":21,"total":25,"ticket":"F","updated_at":"20\/12\/2024 17:19:51","geo_point_2d":{"lon":-0.3463402980947426,"lat":39.45603425797373},"update_jcd":1734714998}},{"type":"Feature","geometry":{"coordinates":[-0.36699436340059455,39.46374929341137],"type":"Point"},"properties":{"address":"Regne de Valencia - Almirante Cadarso","number":35,"open":"T","available":6,"free":9,"total":20,"ticket":"F","updated_at":"20\/12\/2024 17:19:51","geo_point_2d":{"lon":-0.36699436340059455,"lat":39.46374929341137},"update_jcd":1734715033}},{"type":"Feature","geometry":{"coordinates":[-0.3756373880434071,39.46908831533384],"type":"Point"},"properties":{"address":"Ribera - Plaza Ayuntamiento","number":15,"open":"T","available":4,"free":13,"total":34,"ticket":"F","updated_at":"20\/12\/2024 17:19:51","geo_point_2d":{"lon":-0.3756373880434071,"lat":39.46908831533384},"update_jcd":1734714865}},{"type":"Feature","geometry":{"coordinates":[-0.3772593951806123,39.46746831099193],"type":"Point"},"properties":{"address":"X\u00e1tiva - Bail\u00e9n (Estaci\u00f3n del Norte)","number":17,"open":"T","available":19,"free":11,"total":30,"ticket":"F","updated_at":"20\/12\/2024 17:19:51","geo_point_2d":{"lon":-0.3772593951806123,"lat":39.46746831099193},"update_jcd":1734715058}},{"type":"Feature","geometry":{"coordinates":[-0.391590438798602,39.47436934054566],"type":"Point"},"properties":{"address":"Juan Llorens - Quart","number":19,"open":"T","available":5,"free":10,"total":15,"ticket":"F","updated_at":"20\/12\/2024 17:19:51","geo_point_2d":{"lon":-0.391590438798602,"lat":39.47436934054566},"update_jcd":1734714690}},{"type":"Feature","geometry":{"coordinates":[-0.39021443540491124,39.4723713328859],"type":"Point"},"properties":{"address":"Juan Llorens - Literato Gabriel Mir\u00f3","number":21,"open":"T","available":0,"free":15,"total":16,"ticket":"F","updated_at":"20\/12\/2024 17:19:51","geo_point_2d":{"lon":-0.39021443540491124,"lat":39.4723713328859},"update_jcd":1734714768}},{"type":"Feature","geometry":{"coordinates":[-0.37312937987373457,39.468191311513856],"type":"Point"},"properties":{"address":"Col\u00f3n 20-22","number":18,"open":"T","available":23,"free":1,"total":24,"ticket":"F","updated_at":"20\/12\/2024 17:19:51","geo_point_2d":{"lon":-0.37312937987373457,"lat":39.468191311513856},"update_jcd":1734715064}},{"type":"Feature","geometry":{"coordinates":[-0.3545493213542055,39.463088285667624],"type":"Point"},"properties":{"address":"Baleares - R\u00edo Escalona","number":59,"open":"T","available":13,"free":2,"total":15,"ticket":"F","updated_at":"20\/12\/2024 17:19:51","geo_point_2d":{"lon":-0.3545493213542055,"lat":39.463088285667624},"update_jcd":1734715163}},{"type":"Feature","geometry":{"coordinates":[-0.35170130420295115,39.472113313853896],"type":"Point"},"properties":{"address":"Rep\u00fablica Argentina - Campoamor","number":75,"open":"T","available":7,"free":18,"total":25,"ticket":"F","updated_at":"20\/12\/2024 17:19:51","geo_point_2d":{"lon":-0.35170130420295115,"lat":39.472113313853896},"update_jcd":1734715012}},{"type":"Feature","geometry":{"coordinates":[-0.34783029886743094,39.46129327599964],"type":"Point"},"properties":{"address":"Vicent Vidal - Pintor Maella","number":61,"open":"T","available":17,"free":3,"total":20,"ticket":"F","updated_at":"20\/12\/2024 17:19:51","geo_point_2d":{"lon":-0.34783029886743094,"lat":39.46129327599964},"update_jcd":1734714946}},{"type":"Feature","geometry":{"coordinates":[-0.3815864106638383,39.46621830848607],"type":"Point"},"properties":{"address":"Plaza Espa\u00f1a","number":58,"open":"T","available":18,"free":2,"total":20,"ticket":"F","updated_at":"20\/12\/2024 17:19:51","geo_point_2d":{"lon":-0.3815864106638383,"lat":39.46621830848607},"update_jcd":1734714628}},{"type":"Feature","geometry":{"coordinates":[-0.3517763125261459,39.46223128102797],"type":"Point"},"properties":{"address":"Baleares - Leb\u00f3n","number":60,"open":"T","available":7,"free":12,"total":19,"ticket":"F","updated_at":"20\/12\/2024 17:19:51","geo_point_2d":{"lon":-0.3517763125261459,"lat":39.46223128102797},"update_jcd":1734714580}},{"type":"Feature","geometry":{"coordinates":[-0.3462612916525901,39.46427128532339],"type":"Point"},"properties":{"address":"Guillem de Anglesola - Av. Puerto","number":66,"open":"T","available":6,"free":19,"total":25,"ticket":"F","updated_at":"20\/12\/2024 17:19:51","geo_point_2d":{"lon":-0.3462612916525901,"lat":39.46427128532339},"update_jcd":1734715050}},{"type":"Feature","geometry":{"coordinates":[-0.358414330727018,39.46777930285978],"type":"Point"},"properties":{"address":"Av Puerto 19 (Telef\u00f3nica)","number":63,"open":"T","available":6,"free":14,"total":20,"ticket":"F","updated_at":"20\/12\/2024 17:19:51","geo_point_2d":{"lon":-0.358414330727018,"lat":39.46777930285978},"update_jcd":1734714876}},{"type":"Feature","geometry":{"coordinates":[-0.34644628196214244,39.467257201162404],"type":"Point"},"properties":{"address":"Ramiro de Maeztu - Peris Brell","number":72,"open":"T","available":14,"free":1,"total":15,"ticket":"F","updated_at":"20\/12\/2024 17:19:51","geo_point_2d":{"lon":-0.34644628196214244,"lat":39.467257201162404},"update_jcd":1734715028}},{"type":"Feature","geometry":{"coordinates":[-0.3669703519914759,39.47758533929587],"type":"Point"},"properties":{"address":"General Elio - Llano del Real","number":83,"open":"T","available":15,"free":10,"total":25,"ticket":"F","updated_at":"20\/12\/2024 17:19:51","geo_point_2d":{"lon":-0.3669703519914759,"lat":39.47758533929587},"update_jcd":1734715101}},{"type":"Feature","geometry":{"coordinates":[-0.3404842660990001,39.47134430635022],"type":"Point"},"properties":{"address":"Blasco Iba\u00f1ez 166 - Pintor Jos\u00e9 Mongrell","number":99,"open":"T","available":0,"free":21,"total":21,"ticket":"F","updated_at":"20\/12\/2024 17:19:51","geo_point_2d":{"lon":-0.3404842660990001,"lat":39.47134430635022},"update_jcd":1734715137}},{"type":"Feature","geometry":{"coordinates":[-0.37534238089458904,39.476747340831494],"type":"Point"},"properties":{"address":"Plaza de la Virgen - Bail\u00eda","number":4,"open":"T","available":6,"free":17,"total":25,"ticket":"F","updated_at":"20\/12\/2024 17:19:51","geo_point_2d":{"lon":-0.37534238089458904,"lat":39.476747340831494},"update_jcd":1734714887}},{"type":"Feature","geometry":{"coordinates":[-0.36775135880068294,39.47158231958138],"type":"Point"},"properties":{"address":"Navarro Reverter - Grabador Esteve","number":28,"open":"T","available":4,"free":25,"total":29,"ticket":"F","updated_at":"20\/12\/2024 17:19:51","geo_point_2d":{"lon":-0.36775135880068294,"lat":39.47158231958138},"update_jcd":1734715097}},{"type":"Feature","geometry":{"coordinates":[-0.36996137299092113,39.46412229654908],"type":"Point"},"properties":{"address":"Regne de Valencia - Doctor Sumsi","number":34,"open":"T","available":2,"free":15,"total":17,"ticket":"F","updated_at":"20\/12\/2024 17:19:51","geo_point_2d":{"lon":-0.36996137299092113,"lat":39.46412229654908},"update_jcd":1734714842}},{"type":"Feature","geometry":{"coordinates":[-0.3839144104057024,39.47605634238628],"type":"Point"},"properties":{"address":"Guillem de Castro (Torres de Quart)","number":82,"open":"T","available":1,"free":13,"total":15,"ticket":"F","updated_at":"20\/12\/2024 17:19:51","geo_point_2d":{"lon":-0.3839144104057024,"lat":39.47605634238628},"update_jcd":1734715010}},{"type":"Feature","geometry":{"coordinates":[-0.36114233248377353,39.477512336096844],"type":"Point"},"properties":{"address":"Blasco Iba\u00f1ez, 28 (F. Geograf\u00eda e Historia)","number":88,"open":"T","available":5,"free":35,"total":40,"ticket":"F","updated_at":"20\/12\/2024 17:19:51","geo_point_2d":{"lon":-0.36114233248377353,"lat":39.477512336096844},"update_jcd":1734715037}},{"type":"Feature","geometry":{"coordinates":[-0.3589673254467337,39.47673433298103],"type":"Point"},"properties":{"address":"Blasco Iba\u00f1ez, 32 (F. Filolog\u00eda)","number":90,"open":"T","available":3,"free":37,"total":40,"ticket":"F","updated_at":"20\/12\/2024 17:19:51","geo_point_2d":{"lon":-0.3589673254467337,"lat":39.47673433298103},"update_jcd":1734714966}},{"type":"Feature","geometry":{"coordinates":[-0.39155844823975844,39.46158829801141],"type":"Point"},"properties":{"address":"Beato Nicol\u00e1s Factor - Convento de Jes\u00fas","number":199,"open":"T","available":10,"free":4,"total":15,"ticket":"F","updated_at":"20\/12\/2024 17:19:51","geo_point_2d":{"lon":-0.39155844823975844,"lat":39.46158829801141},"update_jcd":1734714734}},{"type":"Feature","geometry":{"coordinates":[-0.32464520634897104,39.47878532308192],"type":"Point"},"properties":{"address":"Pav\u00eda (Instituto Isabel de Villena)","number":169,"open":"T","available":0,"free":18,"total":18,"ticket":"F","updated_at":"20\/12\/2024 17:19:51","geo_point_2d":{"lon":-0.32464520634897104,"lat":39.47878532308192},"update_jcd":1734714911}},{"type":"Feature","geometry":{"coordinates":[-0.394678441209281,39.484541375368174],"type":"Point"},"properties":{"address":"P\u00edo XII - Monestir de Poblet","number":173,"open":"T","available":4,"free":16,"total":20,"ticket":"F","updated_at":"20\/12\/2024 17:19:51","geo_point_2d":{"lon":-0.394678441209281,"lat":39.484541375368174},"update_jcd":1734714878}},{"type":"Feature","geometry":{"coordinates":[-0.3472752845405608,39.478386332978474],"type":"Point"},"properties":{"address":"Albalat dels Tarongers - Paseo Facultades","number":104,"open":"T","available":4,"free":16,"total":20,"ticket":"F","updated_at":"20\/12\/2024 17:19:51","geo_point_2d":{"lon":-0.3472752845405608,"lat":39.478386332978474},"update_jcd":1734715104}},{"type":"Feature","geometry":{"coordinates":[-0.346591279156021,39.4818043438759],"type":"Point"},"properties":{"address":"UPV Inform\u00e1tica","number":114,"open":"T","available":7,"free":23,"total":30,"ticket":"F","updated_at":"20\/12\/2024 17:19:51","geo_point_2d":{"lon":-0.346591279156021,"lat":39.4818043438759},"update_jcd":1734714970}},{"type":"Feature","geometry":{"coordinates":[-0.3436112694462359,39.48127634089521],"type":"Point"},"properties":{"address":"UPV Caminos","number":113,"open":"T","available":16,"free":22,"total":38,"ticket":"F","updated_at":"20\/12\/2024 17:19:51","geo_point_2d":{"lon":-0.3436112694462359,"lat":39.48127634089521},"update_jcd":1734715021}},{"type":"Feature","geometry":{"coordinates":[-0.3851564091174212,39.483268367245344],"type":"Point"},"properties":{"address":"Gregorio Gea - Padre Ferris","number":141,"open":"T","available":5,"free":15,"total":20,"ticket":"F","updated_at":"20\/12\/2024 17:19:51","geo_point_2d":{"lon":-0.3851564091174212,"lat":39.483268367245344},"update_jcd":1734714697}},{"type":"Feature","geometry":{"coordinates":[-0.39093643241708165,39.4795373575288],"type":"Point"},"properties":{"address":"Pio XII - Men\u00e9ndez PIdal (Nuevo Centro)","number":143,"open":"T","available":1,"free":29,"total":30,"ticket":"F","updated_at":"20\/12\/2024 17:19:51","geo_point_2d":{"lon":-0.39093643241708165,"lat":39.4795373575288},"update_jcd":1734715101}},{"type":"Feature","geometry":{"coordinates":[-0.3245702116150898,39.471409299035706],"type":"Point"},"properties":{"address":"Pav\u00eda - Espad\u00e1n","number":165,"open":"T","available":13,"free":7,"total":20,"ticket":"F","updated_at":"20\/12\/2024 17:19:51","geo_point_2d":{"lon":-0.3245702116150898,"lat":39.471409299035706},"update_jcd":1734714754}},{"type":"Feature","geometry":{"coordinates":[-0.3277192268301427,39.46669828513057],"type":"Point"},"properties":{"address":"Doctor Lluch - Virgen del Sufragio","number":158,"open":"T","available":7,"free":8,"total":15,"ticket":"F","updated_at":"20\/12\/2024 17:19:51","geo_point_2d":{"lon":-0.3277192268301427,"lat":39.46669828513057},"update_jcd":1734715091}},{"type":"Feature","geometry":{"coordinates":[-0.32881122495787873,39.47334930757559],"type":"Point"},"properties":{"address":"Don Vicente Guillot - Progreso","number":166,"open":"T","available":7,"free":8,"total":15,"ticket":"F","updated_at":"20\/12\/2024 17:19:51","geo_point_2d":{"lon":-0.32881122495787873,"lat":39.47334930757559},"update_jcd":1734714949}},{"type":"Feature","geometry":{"coordinates":[-0.378853381402734,39.49201739310727],"type":"Point"},"properties":{"address":"Cno. Moncada - Pedro Patricio Mey","number":176,"open":"T","available":5,"free":15,"total":20,"ticket":"F","updated_at":"20\/12\/2024 17:19:51","geo_point_2d":{"lon":-0.378853381402734,"lat":39.49201739310727},"update_jcd":1734714924}},{"type":"Feature","geometry":{"coordinates":[-0.3705063522665271,39.49221639017785],"type":"Point"},"properties":{"address":"Reig Genov\u00e9s - Ram\u00f3n Contreras Mongrell","number":178,"open":"T","available":4,"free":16,"total":20,"ticket":"F","updated_at":"20\/12\/2024 17:19:51","geo_point_2d":{"lon":-0.3705063522665271,"lat":39.49221639017785},"update_jcd":1734714910}},{"type":"Feature","geometry":{"coordinates":[-0.36557036636455215,39.45278225629358],"type":"Point"},"properties":{"address":"Bombero Ram\u00f3n Duart - Hermanos Maristas","number":184,"open":"T","available":12,"free":3,"total":15,"ticket":"F","updated_at":"20\/12\/2024 17:19:51","geo_point_2d":{"lon":-0.36557036636455215,"lat":39.45278225629358},"update_jcd":1734714776}},{"type":"Feature","geometry":{"coordinates":[-0.3523713017453889,39.47845333567255],"type":"Point"},"properties":{"address":"Rub\u00e9n Dar\u00edo - Plaza Fray Luis Colomer","number":103,"open":"T","available":15,"free":0,"total":15,"ticket":"F","updated_at":"20\/12\/2024 17:19:51","geo_point_2d":{"lon":-0.3523713017453889,"lat":39.47845333567255},"update_jcd":1734715107}},{"type":"Feature","geometry":{"coordinates":[-0.357065317141581,39.47925133992885],"type":"Point"},"properties":{"address":"Gasc\u00f3 Oliag - Primado Reig","number":117,"open":"T","available":5,"free":25,"total":30,"ticket":"F","updated_at":"20\/12\/2024 17:19:51","geo_point_2d":{"lon":-0.357065317141581,"lat":39.47925133992885},"update_jcd":1734715091}},{"type":"Feature","geometry":{"coordinates":[-0.36322633473676447,39.48252035422283],"type":"Point"},"properties":{"address":"Jaime Roig - Bachiller","number":119,"open":"T","available":1,"free":18,"total":20,"ticket":"F","updated_at":"20\/12\/2024 17:19:51","geo_point_2d":{"lon":-0.36322633473676447,"lat":39.48252035422283},"update_jcd":1734715100}},{"type":"Feature","geometry":{"coordinates":[-0.35877131748144303,39.48618236435413],"type":"Point"},"properties":{"address":"Murta - Sant Eperit","number":121,"open":"T","available":2,"free":13,"total":15,"ticket":"F","updated_at":"20\/12\/2024 17:19:51","geo_point_2d":{"lon":-0.35877131748144303,"lat":39.48618236435413},"update_jcd":1734714955}},{"type":"Feature","geometry":{"coordinates":[-0.3586183142345537,39.489693375775445],"type":"Point"},"properties":{"address":"Masquefa, 42 - 44","number":125,"open":"T","available":9,"free":6,"total":15,"ticket":"F","updated_at":"20\/12\/2024 17:19:51","geo_point_2d":{"lon":-0.3586183142345537,"lat":39.489693375775445},"update_jcd":1734714978}},{"type":"Feature","geometry":{"coordinates":[-0.398395456094638,39.48154736759815],"type":"Point"},"properties":{"address":"Plaza Badajoz","number":145,"open":"T","available":0,"free":15,"total":15,"ticket":"F","updated_at":"20\/12\/2024 17:19:51","geo_point_2d":{"lon":-0.398395456094638,"lat":39.48154736759815},"update_jcd":1734715009}},{"type":"Feature","geometry":{"coordinates":[-0.3540663028794564,39.48448535604776],"type":"Point"},"properties":{"address":"M\u00fasico Hip\u00f3lito Mart\u00ednez - Di\u00f3genes L\u00f3pez Mecho","number":122,"open":"T","available":4,"free":11,"total":15,"ticket":"F","updated_at":"20\/12\/2024 17:19:51","geo_point_2d":{"lon":-0.3540663028794564,"lat":39.48448535604776},"update_jcd":1734714675}},{"type":"Feature","geometry":{"coordinates":[-0.39548044804080085,39.4787793569025],"type":"Point"},"properties":{"address":"Marqu\u00e9s de San Juan - Diputat Llu\u00eds Luc\u00eda","number":144,"open":"T","available":5,"free":10,"total":15,"ticket":"F","updated_at":"20\/12\/2024 17:19:51","geo_point_2d":{"lon":-0.39548044804080085,"lat":39.4787793569025},"update_jcd":1734714912}},{"type":"Feature","geometry":{"coordinates":[-0.33711726031421224,39.464669282422186],"type":"Point"},"properties":{"address":"Jer\u00f3nimo Monsoriu - Alcalde Cano Coloma","number":151,"open":"T","available":17,"free":3,"total":20,"ticket":"F","updated_at":"20\/12\/2024 17:19:51","geo_point_2d":{"lon":-0.33711726031421224,"lat":39.464669282422186},"update_jcd":1734714926}},{"type":"Feature","geometry":{"coordinates":[-0.3805912745331588,39.48305822805289],"type":"Point"},"properties":{"address":"Llano de la Zaid\u00eda - Doctor Ol\u00f3riz","number":153,"open":"T","available":10,"free":14,"total":24,"ticket":"F","updated_at":"20\/12\/2024 17:19:51","geo_point_2d":{"lon":-0.3805912745331588,"lat":39.48305822805289},"update_jcd":1734715134}},{"type":"Feature","geometry":{"coordinates":[-0.3753782937388751,39.46714522461298],"type":"Point"},"properties":{"address":"C\/X\u00e0tiva 30-32","number":148,"open":"T","available":20,"free":14,"total":35,"ticket":"F","updated_at":"20\/12\/2024 17:19:51","geo_point_2d":{"lon":-0.3753782937388751,"lat":39.46714522461298},"update_jcd":1734715043}},{"type":"Feature","geometry":{"coordinates":[-0.35060930364544307,39.46772129856667],"type":"Point"},"properties":{"address":"Manuel Candela - Rodriguez de Cepeda","number":150,"open":"T","available":17,"free":8,"total":25,"ticket":"F","updated_at":"20\/12\/2024 17:19:51","geo_point_2d":{"lon":-0.35060930364544307,"lat":39.46772129856667},"update_jcd":1734715102}},{"type":"Feature","geometry":{"coordinates":[-0.3727053849231208,39.460925286769694],"type":"Point"},"properties":{"address":"Reina Do\u00f1a Mar\u00eda - C\u00e1diz","number":152,"open":"T","available":11,"free":4,"total":15,"ticket":"F","updated_at":"20\/12\/2024 17:19:51","geo_point_2d":{"lon":-0.3727053849231208,"lat":39.460925286769694},"update_jcd":1734714819}},{"type":"Feature","geometry":{"coordinates":[-0.38179930448705707,39.4607722298068],"type":"Point"},"properties":{"address":"Estaci\u00f3n AVE Joaqu\u00edn Sorolla","number":194,"open":"T","available":19,"free":19,"total":40,"ticket":"F","updated_at":"20\/12\/2024 17:19:51","geo_point_2d":{"lon":-0.38179930448705707,"lat":39.4607722298068},"update_jcd":1734714993}},{"type":"Feature","geometry":{"coordinates":[-0.37588237827023757,39.48275636079257],"type":"Point"},"properties":{"address":"Alfambra - Poeta Monmeneu","number":133,"open":"T","available":5,"free":10,"total":15,"ticket":"F","updated_at":"20\/12\/2024 17:19:51","geo_point_2d":{"lon":-0.37588237827023757,"lat":39.48275636079257},"update_jcd":1734715113}},{"type":"Feature","geometry":{"coordinates":[-0.37706532415787625,39.44477922701873],"type":"Point"},"properties":{"address":"Hospital Nueva Fe (administraci\u00f3n)","number":189,"open":"T","available":6,"free":24,"total":30,"ticket":"F","updated_at":"20\/12\/2024 17:19:51","geo_point_2d":{"lon":-0.37706532415787625,"lat":39.44477922701873},"update_jcd":1734715089}},{"type":"Feature","geometry":{"coordinates":[-0.3891374575312111,39.43982822413676],"type":"Point"},"properties":{"address":"Pintor Rafael Solves - Jose Soto Mico","number":258,"open":"T","available":4,"free":10,"total":15,"ticket":"F","updated_at":"20\/12\/2024 17:19:51","geo_point_2d":{"lon":-0.3891374575312111,"lat":39.43982822413676},"update_jcd":1734715045}},{"type":"Feature","geometry":{"coordinates":[-0.41849350927046264,39.50144544298018],"type":"Point"},"properties":{"address":"Plaza Luis Cano, 5","number":268,"open":"T","available":6,"free":4,"total":10,"ticket":"F","updated_at":"20\/12\/2024 17:19:51","geo_point_2d":{"lon":-0.41849350927046264,"lat":39.50144544298018},"update_jcd":1734715098}},{"type":"Feature","geometry":{"coordinates":[-0.4008070181198941,39.456352245577065],"type":"Point"},"properties":{"address":"Tres Cruces - Pio XI","number":250,"open":"T","available":8,"free":7,"total":15,"ticket":"F","updated_at":"20\/12\/2024 17:19:51","geo_point_2d":{"lon":-0.4008070181198941,"lat":39.456352245577065},"update_jcd":1734715078}},{"type":"Feature","geometry":{"coordinates":[-0.3899174536874086,39.447714251158565],"type":"Point"},"properties":{"address":"Doctor Tom\u00e1s Sala - Carteros","number":254,"open":"T","available":5,"free":14,"total":19,"ticket":"F","updated_at":"20\/12\/2024 17:19:51","geo_point_2d":{"lon":-0.3899174536874086,"lat":39.447714251158565},"update_jcd":1734714933}},{"type":"Feature","geometry":{"coordinates":[-0.39223544845537966,39.46396330656933],"type":"Point"},"properties":{"address":"Tres Forques - Tur\u00eds","number":256,"open":"T","available":6,"free":9,"total":15,"ticket":"F","updated_at":"20\/12\/2024 17:19:51","geo_point_2d":{"lon":-0.39223544845537966,"lat":39.46396330656933},"update_jcd":1734714941}},{"type":"Feature","geometry":{"coordinates":[-0.39728245609920837,39.47689335174765],"type":"Point"},"properties":{"address":"Maestro Rodrigo - Manuel de Falla","number":222,"open":"T","available":1,"free":19,"total":20,"ticket":"F","updated_at":"20\/12\/2024 17:19:51","geo_point_2d":{"lon":-0.39728245609920837,"lat":39.47689335174765},"update_jcd":1734714800}},{"type":"Feature","geometry":{"coordinates":[-0.38910445245389036,39.44525124234686],"type":"Point"},"properties":{"address":"Plaza Salvador Soria, 8","number":257,"open":"T","available":0,"free":20,"total":20,"ticket":"F","updated_at":"20\/12\/2024 17:19:51","geo_point_2d":{"lon":-0.38910445245389036,"lat":39.44525124234686},"update_jcd":1734715053}},{"type":"Feature","geometry":{"coordinates":[-0.40811749816977394,39.470973337167365],"type":"Point"},"properties":{"address":"Alcasser - Poeta Alberto Lista","number":265,"open":"T","available":4,"free":11,"total":15,"ticket":"F","updated_at":"20\/12\/2024 17:19:51","geo_point_2d":{"lon":-0.40811749816977394,"lat":39.470973337167365},"update_jcd":1734714954}},{"type":"Feature","geometry":{"coordinates":[-0.3736443597891149,39.49649940567526],"type":"Point"},"properties":{"address":"Plaza M\u00fasico Esp\u00ed","number":234,"open":"T","available":3,"free":12,"total":15,"ticket":"F","updated_at":"20\/12\/2024 17:19:51","geo_point_2d":{"lon":-0.3736443597891149,"lat":39.49649940567526},"update_jcd":1734714792}},{"type":"Feature","geometry":{"coordinates":[-0.40613648554970433,39.47850636088407],"type":"Point"},"properties":{"address":"Valle de la Ballestera - Pio Baroja","number":244,"open":"T","available":1,"free":19,"total":20,"ticket":"F","updated_at":"20\/12\/2024 17:19:51","geo_point_2d":{"lon":-0.40613648554970433,"lat":39.47850636088407},"update_jcd":1734715042}},{"type":"Feature","geometry":{"coordinates":[-0.40496949382893443,39.46284030885798],"type":"Point"},"properties":{"address":"Tres Cruces - Jose Maria Mortes Lerma","number":248,"open":"T","available":1,"free":19,"total":20,"ticket":"F","updated_at":"20\/12\/2024 17:19:51","geo_point_2d":{"lon":-0.40496949382893443,"lat":39.46284030885798},"update_jcd":1734715140}},{"type":"Feature","geometry":{"coordinates":[-0.4027404883331656,39.459506295875165],"type":"Point"},"properties":{"address":"Tres Cruces - Segunda Rep\u00fablica Espa\u00f1ola","number":249,"open":"T","available":13,"free":2,"total":15,"ticket":"F","updated_at":"20\/12\/2024 17:19:51","geo_point_2d":{"lon":-0.4027404883331656,"lat":39.459506295875165},"update_jcd":1734715028}},{"type":"Feature","geometry":{"coordinates":[-0.4044134972721287,39.45583028505104],"type":"Point"},"properties":{"address":"Arquitecto Segura del Lago - Camino Nuevo de Pica\u00f1a","number":251,"open":"T","available":6,"free":9,"total":15,"ticket":"F","updated_at":"20\/12\/2024 17:19:51","geo_point_2d":{"lon":-0.4044134972721287,"lat":39.45583028505104},"update_jcd":1734714989}},{"type":"Feature","geometry":{"coordinates":[-0.42626353678444817,39.49990744160243],"type":"Point"},"properties":{"address":"Campamento, 81","number":269,"open":"T","available":2,"free":13,"total":15,"ticket":"F","updated_at":"20\/12\/2024 17:19:51","geo_point_2d":{"lon":-0.42626353678444817,"lat":39.49990744160243},"update_jcd":1734714844}},{"type":"Feature","geometry":{"coordinates":[-0.3994613007254756,39.469162243634074],"type":"Point"},"properties":{"address":"Av. del Cid - Burgos","number":216,"open":"T","available":0,"free":17,"total":17,"ticket":"F","updated_at":"20\/12\/2024 17:19:51","geo_point_2d":{"lon":-0.3994613007254756,"lat":39.469162243634074},"update_jcd":1734714922}},{"type":"Feature","geometry":{"coordinates":[-0.4011874677803583,39.47855835893999],"type":"Point"},"properties":{"address":"Valle de la Ballestera - Hospital Nueve de Octubre","number":223,"open":"T","available":2,"free":18,"total":20,"ticket":"F","updated_at":"20\/12\/2024 17:19:51","geo_point_2d":{"lon":-0.4011874677803583,"lat":39.47855835893999},"update_jcd":1734714862}},{"type":"Feature","geometry":{"coordinates":[-0.33219023115385166,39.48062333339468],"type":"Point"},"properties":{"address":"Vicente la Roda - Ingeniero Fausto Elio","number":272,"open":"T","available":12,"free":3,"total":15,"ticket":"F","updated_at":"20\/12\/2024 17:19:51","geo_point_2d":{"lon":-0.33219023115385166,"lat":39.48062333339468},"update_jcd":1734714802}},{"type":"Feature","geometry":{"coordinates":[-0.3331882593063431,39.44807022576504],"type":"Point"},"properties":{"address":"San Francisco de Paula - Castell de Pop","number":274,"open":"T","available":10,"free":5,"total":15,"ticket":"F","updated_at":"20\/12\/2024 17:19:51","geo_point_2d":{"lon":-0.3331882593063431,"lat":39.44807022576504},"update_jcd":1734714807}},{"type":"Feature","geometry":{"coordinates":[-0.3930904323547156,39.48928739053543],"type":"Point"},"properties":{"address":"Nicasio Benlloch - Amics dels Corpus","number":205,"open":"T","available":3,"free":21,"total":24,"ticket":"F","updated_at":"20\/12\/2024 17:19:51","geo_point_2d":{"lon":-0.3930904323547156,"lat":39.48928739053543},"update_jcd":1734714877}},{"type":"Feature","geometry":{"coordinates":[-0.3977574716661004,39.45872629171394],"type":"Point"},"properties":{"address":"Fray Jun\u00edpero Serra - Vall d'Uix\u00f3","number":211,"open":"T","available":6,"free":9,"total":15,"ticket":"F","updated_at":"20\/12\/2024 17:19:51","geo_point_2d":{"lon":-0.3977574716661004,"lat":39.45872629171394},"update_jcd":1734714818}},{"type":"Feature","geometry":{"coordinates":[-0.398671446907537,39.4936924079167],"type":"Point"},"properties":{"address":"Doctor Nicasio Benlloch - L'Horta Sud","number":228,"open":"T","available":3,"free":12,"total":15,"ticket":"F","updated_at":"20\/12\/2024 17:19:51","geo_point_2d":{"lon":-0.398671446907537,"lat":39.4936924079167},"update_jcd":1734714980}},{"type":"Feature","geometry":{"coordinates":[-0.40293146422681364,39.49024839844318],"type":"Point"},"properties":{"address":"San Clemente - Hospital Arnau de Vilanova","number":227,"open":"T","available":12,"free":8,"total":20,"ticket":"F","updated_at":"20\/12\/2024 17:19:51","geo_point_2d":{"lon":-0.40293146422681364,"lat":39.49024839844318},"update_jcd":1734714902}},{"type":"Feature","geometry":{"coordinates":[-0.39480643424749534,39.493104403991694],"type":"Point"},"properties":{"address":"Aitana - Florista","number":229,"open":"T","available":8,"free":8,"total":16,"ticket":"F","updated_at":"20\/12\/2024 17:19:51","geo_point_2d":{"lon":-0.39480643424749534,"lat":39.493104403991694},"update_jcd":1734715060}},{"type":"Feature","geometry":{"coordinates":[-0.3772033703255944,39.49804541205544],"type":"Point"},"properties":{"address":"Conde Torrefiel - Cecilio Pl\u00e1","number":235,"open":"T","available":7,"free":8,"total":15,"ticket":"F","updated_at":"20\/12\/2024 17:19:51","geo_point_2d":{"lon":-0.3772033703255944,"lat":39.49804541205544},"update_jcd":1734714923}},{"type":"Feature","geometry":{"coordinates":[-0.3748243837183276,39.470466319701956],"type":"Point"},"properties":{"address":"Barcas, 11","number":40,"open":"T","available":9,"free":17,"total":26,"ticket":"F","updated_at":"20\/12\/2024 17:19:51","geo_point_2d":{"lon":-0.3748243837183276,"lat":39.470466319701956},"update_jcd":1734714637}},{"type":"Feature","geometry":{"coordinates":[-0.33815025853445674,39.471634305646866],"type":"Point"},"properties":{"address":"Blasco Iba\u00f1ez - Mestre Ripoll","number":100,"open":"T","available":3,"free":17,"total":20,"ticket":"F","updated_at":"20\/12\/2024 17:19:51","geo_point_2d":{"lon":-0.33815025853445674,"lat":39.471634305646866},"update_jcd":1734714769}},{"type":"Feature","geometry":{"coordinates":[-0.3840274173384119,39.469077319212495],"type":"Point"},"properties":{"address":"Fernando el Cat\u00f3lico - Cuenca","number":24,"open":"T","available":0,"free":18,"total":20,"ticket":"F","updated_at":"20\/12\/2024 17:19:51","geo_point_2d":{"lon":-0.3840274173384119,"lat":39.469077319212495},"update_jcd":1734714991}},{"type":"Feature","geometry":{"coordinates":[-0.3699303648826442,39.47435533016869],"type":"Point"},"properties":{"address":"Plaza de Tetu\u00e1n","number":9,"open":"T","available":3,"free":22,"total":25,"ticket":"F","updated_at":"20\/12\/2024 17:19:51","geo_point_2d":{"lon":-0.3699303648826442,"lat":39.47435533016869},"update_jcd":1734715106}},{"type":"Feature","geometry":{"coordinates":[-0.3791853952972924,39.47487233593648],"type":"Point"},"properties":{"address":"Plaza del Mercado - Taula de Canvis","number":7,"open":"T","available":3,"free":14,"total":19,"ticket":"F","updated_at":"20\/12\/2024 17:19:51","geo_point_2d":{"lon":-0.3791853952972924,"lat":39.47487233593648},"update_jcd":1734715047}},{"type":"Feature","geometry":{"coordinates":[-0.37024937736936264,39.45940204927687],"type":"Point"},"properties":{"address":"Peris y Valero - Cabo Jubi","number":38,"open":"T","available":8,"free":7,"total":15,"ticket":"F","updated_at":"20\/12\/2024 17:19:51","geo_point_2d":{"lon":-0.37024937736936264,"lat":39.45940204927687},"update_jcd":1734715115}},{"type":"Feature","geometry":{"coordinates":[-0.3704333693720587,39.470092316192336],"type":"Point"},"properties":{"address":"Col\u00f3n, 60","number":16,"open":"T","available":14,"free":6,"total":20,"ticket":"F","updated_at":"20\/12\/2024 17:19:51","geo_point_2d":{"lon":-0.3704333693720587,"lat":39.470092316192336},"update_jcd":1734715103}},{"type":"Feature","geometry":{"coordinates":[-0.3444052893928658,39.45842126509135],"type":"Point"},"properties":{"address":"Francia - Menorca","number":56,"open":"T","available":5,"free":10,"total":15,"ticket":"F","updated_at":"20\/12\/2024 17:19:51","geo_point_2d":{"lon":-0.3444052893928658,"lat":39.45842126509135},"update_jcd":1734715075}},{"type":"Feature","geometry":{"coordinates":[-0.3571104198826364,39.45298693239739],"type":"Point"},"properties":{"address":"Ricardo Mu\u00f1oz Suay - Mar\u00eda Jos\u00e9 Victoria Fuster (C.C. El Saler)","number":49,"open":"T","available":12,"free":13,"total":25,"ticket":"F","updated_at":"20\/12\/2024 17:19:51","geo_point_2d":{"lon":-0.3571104198826364,"lat":39.45298693239739},"update_jcd":1734715004}},{"type":"Feature","geometry":{"coordinates":[-0.3883534313205414,39.46978732404922],"type":"Point"},"properties":{"address":"Angel Guimer\u00e1 - Juan Llorens","number":22,"open":"T","available":13,"free":2,"total":15,"ticket":"F","updated_at":"20\/12\/2024 17:19:51","geo_point_2d":{"lon":-0.3883534313205414,"lat":39.46978732404922},"update_jcd":1734714723}},{"type":"Feature","geometry":{"coordinates":[-0.37972440222295445,39.46896731649349],"type":"Point"},"properties":{"address":"Huesca - Bar\u00f3n de C\u00e1rcer","number":14,"open":"T","available":5,"free":15,"total":20,"ticket":"F","updated_at":"20\/12\/2024 17:19:51","geo_point_2d":{"lon":-0.37972440222295445,"lat":39.46896731649349},"update_jcd":1734714885}},{"type":"Feature","geometry":{"coordinates":[-0.3582563324315247,39.46447629179199],"type":"Point"},"properties":{"address":"Alameda - Pintor Monle\u00f3n","number":57,"open":"T","available":13,"free":7,"total":20,"ticket":"F","updated_at":"20\/12\/2024 17:19:51","geo_point_2d":{"lon":-0.3582563324315247,"lat":39.46447629179199},"update_jcd":1734715074}},{"type":"Feature","geometry":{"coordinates":[-0.3508373061951808,39.465516292011046],"type":"Point"},"properties":{"address":"Av. Puerto - Doctor Manuel Candela","number":65,"open":"T","available":18,"free":1,"total":19,"ticket":"F","updated_at":"20\/12\/2024 17:19:51","geo_point_2d":{"lon":-0.3508373061951808,"lat":39.465516292011046},"update_jcd":1734714940}},{"type":"Feature","geometry":{"coordinates":[-0.33679826304022287,39.45886026320377],"type":"Point"},"properties":{"address":"Juan Verdeguer - Toneleros","number":67,"open":"T","available":6,"free":8,"total":14,"ticket":"F","updated_at":"20\/12\/2024 17:19:51","geo_point_2d":{"lon":-0.33679826304022287,"lat":39.45886026320377},"update_jcd":1734715039}},{"type":"Feature","geometry":{"coordinates":[-0.3387212679875118,39.46195227384504],"type":"Point"},"properties":{"address":"Av. Puerto - Serrer\u00eda","number":69,"open":"T","available":3,"free":22,"total":25,"ticket":"F","updated_at":"20\/12\/2024 17:19:51","geo_point_2d":{"lon":-0.3387212679875118,"lat":39.46195227384504},"update_jcd":1734714638}},{"type":"Feature","geometry":{"coordinates":[-0.33353125122308164,39.46038026686525],"type":"Point"},"properties":{"address":"Av. Puerto - Plaza Tribunal de les Aig\u00fces","number":71,"open":"T","available":11,"free":8,"total":20,"ticket":"F","updated_at":"20\/12\/2024 17:19:51","geo_point_2d":{"lon":-0.33353125122308164,"lat":39.46038026686525},"update_jcd":1734715055}},{"type":"Feature","geometry":{"coordinates":[-0.3428792786496773,39.4662592905475],"type":"Point"},"properties":{"address":"Jer\u00f3nimo Monsoriu - Industria","number":73,"open":"T","available":17,"free":3,"total":20,"ticket":"F","updated_at":"20\/12\/2024 17:19:51","geo_point_2d":{"lon":-0.3428792786496773,"lat":39.4662592905475},"update_jcd":1734714890}},{"type":"Feature","geometry":{"coordinates":[-0.36566734195835493,39.48497336307338],"type":"Point"},"properties":{"address":"Molinell - Calder\u00f3n de la Barca","number":77,"open":"T","available":14,"free":6,"total":20,"ticket":"F","updated_at":"20\/12\/2024 17:19:51","geo_point_2d":{"lon":-0.36566734195835493,"lat":39.48497336307338},"update_jcd":1734715069}},{"type":"Feature","geometry":{"coordinates":[-0.36115334583643566,39.459477276259406],"type":"Point"},"properties":{"address":"Escultor Jos\u00e9 Capuz - Oriente","number":43,"open":"T","available":12,"free":8,"total":20,"ticket":"F","updated_at":"20\/12\/2024 17:19:51","geo_point_2d":{"lon":-0.36115334583643566,"lat":39.459477276259406},"update_jcd":1734715163}},{"type":"Feature","geometry":{"coordinates":[-0.35541832880362817,39.45651226440267],"type":"Point"},"properties":{"address":"Autopista del Saler - Puente Monteolivete","number":47,"open":"T","available":4,"free":16,"total":20,"ticket":"F","updated_at":"20\/12\/2024 17:19:51","geo_point_2d":{"lon":-0.35541832880362817,"lat":39.45651226440267},"update_jcd":1734715055}},{"type":"Feature","geometry":{"coordinates":[-0.3417332778594022,39.46280327868023],"type":"Point"},"properties":{"address":"Av. Puerto - Jos\u00e9 Aguilar","number":68,"open":"T","available":9,"free":11,"total":20,"ticket":"F","updated_at":"20\/12\/2024 17:19:51","geo_point_2d":{"lon":-0.3417332778594022,"lat":39.46280327868023},"update_jcd":1734715161}},{"type":"Feature","geometry":{"coordinates":[-0.35419531724959286,39.46651829706714],"type":"Point"},"properties":{"address":"Av. Puerto 61-63","number":64,"open":"T","available":5,"free":15,"total":20,"ticket":"F","updated_at":"20\/12\/2024 17:19:51","geo_point_2d":{"lon":-0.35419531724959286,"lat":39.46651829706714},"update_jcd":1734715156}},{"type":"Feature","geometry":{"coordinates":[-0.358688329939162,39.46994531050937],"type":"Point"},"properties":{"address":"Arag\u00f3n - Vicente Sancho Tello","number":78,"open":"T","available":4,"free":16,"total":20,"ticket":"F","updated_at":"20\/12\/2024 17:19:51","geo_point_2d":{"lon":-0.358688329939162,"lat":39.46994531050937},"update_jcd":1734714814}},{"type":"Feature","geometry":{"coordinates":[-0.35596831583559707,39.47586032883543],"type":"Point"},"properties":{"address":"Blasco Iba\u00f1ez - Arag\u00f3n","number":92,"open":"T","available":1,"free":18,"total":20,"ticket":"F","updated_at":"20\/12\/2024 17:19:51","geo_point_2d":{"lon":-0.35596831583559707,"lat":39.47586032883543},"update_jcd":1734714768}},{"type":"Feature","geometry":{"coordinates":[-0.3537343124957471,39.469949307546806],"type":"Point"},"properties":{"address":"Plaza San Felipe Neri (Mercado Algir\u00f3s)","number":74,"open":"T","available":7,"free":13,"total":20,"ticket":"F","updated_at":"20\/12\/2024 17:19:51","geo_point_2d":{"lon":-0.3537343124957471,"lat":39.469949307546806},"update_jcd":1734714850}},{"type":"Feature","geometry":{"coordinates":[-0.343461277578989,39.47008330347364],"type":"Point"},"properties":{"address":"Campoamor - M\u00fasico Gin\u00e9s","number":76,"open":"T","available":11,"free":8,"total":19,"ticket":"F","updated_at":"20\/12\/2024 17:19:51","geo_point_2d":{"lon":-0.343461277578989,"lat":39.47008330347364},"update_jcd":1734715101}},{"type":"Feature","geometry":{"coordinates":[-0.3647153422684407,39.479464345022826],"type":"Point"},"properties":{"address":"Blasco Iba\u00f1ez - Jaime Roig","number":85,"open":"T","available":0,"free":23,"total":23,"ticket":"F","updated_at":"20\/12\/2024 17:19:51","geo_point_2d":{"lon":-0.3647153422684407,"lat":39.479464345022826},"update_jcd":1734714929}},{"type":"Feature","geometry":{"coordinates":[-0.3431322739648798,39.47306831276613],"type":"Point"},"properties":{"address":"Blasco Iba\u00f1ez 121","number":97,"open":"T","available":16,"free":7,"total":23,"ticket":"F","updated_at":"20\/12\/2024 17:19:51","geo_point_2d":{"lon":-0.3431322739648798,"lat":39.47306831276613},"update_jcd":1734714566}},{"type":"Feature","geometry":{"coordinates":[-0.3802883976424855,39.4768353435743],"type":"Point"},"properties":{"address":"Plaza del Musico L\u00f3pez Chavarri","number":3,"open":"T","available":0,"free":20,"total":20,"ticket":"F","updated_at":"20\/12\/2024 17:19:51","geo_point_2d":{"lon":-0.3802883976424855,"lat":39.4768353435743},"update_jcd":1734714822}},{"type":"Feature","geometry":{"coordinates":[-0.3652993525279599,39.47011231364647],"type":"Point"},"properties":{"address":"Plaza Am\u00e9rica - Cirilo Amor\u00f3s - Sorn\u00ed","number":29,"open":"T","available":19,"free":1,"total":20,"ticket":"F","updated_at":"20\/12\/2024 17:19:51","geo_point_2d":{"lon":-0.3652993525279599,"lat":39.47011231364647},"update_jcd":1734715144}},{"type":"Feature","geometry":{"coordinates":[-0.3650283531086902,39.467365304622646],"type":"Point"},"properties":{"address":"Salamanca - Conde Altea","number":31,"open":"T","available":5,"free":14,"total":19,"ticket":"F","updated_at":"20\/12\/2024 17:19:51","geo_point_2d":{"lon":-0.3650283531086902,"lat":39.467365304622646},"update_jcd":1734714929}},{"type":"Feature","geometry":{"coordinates":[-0.3664406250017559,39.460937800028375],"type":"Point"},"properties":{"address":"Peris y Valero - Luis Sant\u00e1ngel","number":37,"open":"T","available":11,"free":9,"total":20,"ticket":"F","updated_at":"20\/12\/2024 17:19:51","geo_point_2d":{"lon":-0.3664406250017559,"lat":39.460937800028375},"update_jcd":1734715161}},{"type":"Feature","geometry":{"coordinates":[-0.36849936365579583,39.468601309884924],"type":"Point"},"properties":{"address":"Cirilo Amor\u00f3s - Jorge Juan (Mercado Col\u00f3n)","number":30,"open":"T","available":8,"free":12,"total":20,"ticket":"F","updated_at":"20\/12\/2024 17:19:51","geo_point_2d":{"lon":-0.36849936365579583,"lat":39.468601309884924},"update_jcd":1734715132}},{"type":"Feature","geometry":{"coordinates":[-0.3682473649948816,39.46600630156446],"type":"Point"},"properties":{"address":"Conde Altea - Almirante Cadarso","number":32,"open":"T","available":16,"free":2,"total":20,"ticket":"F","updated_at":"20\/12\/2024 17:19:51","geo_point_2d":{"lon":-0.3682473649948816,"lat":39.46600630156446},"update_jcd":1734714824}},{"type":"Feature","geometry":{"coordinates":[-0.357242322435451,39.4727793187067],"type":"Point"},"properties":{"address":"Arag\u00f3n - Ernesto Ferrer","number":79,"open":"T","available":2,"free":18,"total":20,"ticket":"F","updated_at":"20\/12\/2024 17:19:51","geo_point_2d":{"lon":-0.357242322435451,"lat":39.4727793187067},"update_jcd":1734714858}},{"type":"Feature","geometry":{"coordinates":[-0.36097833354659675,39.47512832851177],"type":"Point"},"properties":{"address":"Micer Masc\u00f3 - Rodriguez Fornos","number":81,"open":"T","available":1,"free":19,"total":20,"ticket":"F","updated_at":"20\/12\/2024 17:19:51","geo_point_2d":{"lon":-0.36097833354659675,"lat":39.47512832851177},"update_jcd":1734714991}},{"type":"Feature","geometry":{"coordinates":[-0.3593183259089267,39.47780233689744],"type":"Point"},"properties":{"address":"Blasco Iba\u00f1ez, 23 (F. Filosof\u00eda y Psicolog\u00eda)","number":89,"open":"T","available":1,"free":29,"total":30,"ticket":"F","updated_at":"20\/12\/2024 17:19:51","geo_point_2d":{"lon":-0.3593183259089267,"lat":39.47780233689744},"update_jcd":1734715135}},{"type":"Feature","geometry":{"coordinates":[-0.36229833944736023,39.47374232444908],"type":"Point"},"properties":{"address":"Amadeo de Saboya (frente Ayuntamiento)","number":80,"open":"T","available":3,"free":22,"total":25,"ticket":"F","updated_at":"20\/12\/2024 17:19:51","geo_point_2d":{"lon":-0.36229833944736023,"lat":39.47374232444908},"update_jcd":1734715160}},{"type":"Feature","geometry":{"coordinates":[-0.39119345191575566,39.4552402764855],"type":"Point"},"properties":{"address":"Gaspar Aguilar - Vicente Parra","number":86,"open":"T","available":5,"free":15,"total":20,"ticket":"F","updated_at":"20\/12\/2024 17:19:51","geo_point_2d":{"lon":-0.39119345191575566,"lat":39.4552402764855},"update_jcd":1734714861}},{"type":"Feature","geometry":{"coordinates":[-0.3246102088459378,39.474908310742784],"type":"Point"},"properties":{"address":"Pav\u00eda - Acequia de la Cadena","number":167,"open":"T","available":19,"free":1,"total":20,"ticket":"F","updated_at":"20\/12\/2024 17:19:51","geo_point_2d":{"lon":-0.3246102088459378,"lat":39.474908310742784},"update_jcd":1734714827}},{"type":"Feature","geometry":{"coordinates":[-0.3787144113919625,39.45263726161547],"type":"Point"},"properties":{"address":"Cra. Malilla - Olt\u00e1","number":192,"open":"T","available":12,"free":8,"total":20,"ticket":"F","updated_at":"20\/12\/2024 17:19:51","geo_point_2d":{"lon":-0.3787144113919625,"lat":39.45263726161547},"update_jcd":1734714702}},{"type":"Feature","geometry":{"coordinates":[-0.39233345436447337,39.458184286737165],"type":"Point"},"properties":{"address":"Fontanars dels Aforins - Jacinto Labaila","number":197,"open":"T","available":3,"free":12,"total":15,"ticket":"F","updated_at":"20\/12\/2024 17:19:51","geo_point_2d":{"lon":-0.39233345436447337,"lat":39.458184286737165},"update_jcd":1734715028}},{"type":"Feature","geometry":{"coordinates":[-0.38271239433339566,39.49258939642365],"type":"Point"},"properties":{"address":"Juan XXIII - Domingo G\u00f3mez","number":175,"open":"T","available":11,"free":4,"total":15,"ticket":"F","updated_at":"20\/12\/2024 17:19:51","geo_point_2d":{"lon":-0.38271239433339566,"lat":39.49258939642365},"update_jcd":1734714844}},{"type":"Feature","geometry":{"coordinates":[-0.33668024623462534,39.48074033571707],"type":"Point"},"properties":{"address":"UPV Trinquet","number":110,"open":"T","available":8,"free":22,"total":30,"ticket":"F","updated_at":"20\/12\/2024 17:19:51","geo_point_2d":{"lon":-0.33668024623462534,"lat":39.48074033571707},"update_jcd":1734714565}},{"type":"Feature","geometry":{"coordinates":[-0.3688183809361798,39.447960241518516],"type":"Point"},"properties":{"address":"\u00c1ngel Villena - Ausias March","number":187,"open":"T","available":7,"free":8,"total":15,"ticket":"F","updated_at":"20\/12\/2024 17:19:51","geo_point_2d":{"lon":-0.3688183809361798,"lat":39.447960241518516},"update_jcd":1734715100}},{"type":"Feature","geometry":{"coordinates":[-0.3842814248129742,39.459384287208486],"type":"Point"},"properties":{"address":"Giorgeta - Roig de Corella","number":195,"open":"T","available":8,"free":8,"total":16,"ticket":"F","updated_at":"20\/12\/2024 17:19:51","geo_point_2d":{"lon":-0.3842814248129742,"lat":39.459384287208486},"update_jcd":1734715090}},{"type":"Feature","geometry":{"coordinates":[-0.34227526701990957,39.47858033137406],"type":"Point"},"properties":{"address":"Manuel Broseta i Pont - Naranjos","number":112,"open":"T","available":24,"free":16,"total":40,"ticket":"F","updated_at":"20\/12\/2024 17:19:51","geo_point_2d":{"lon":-0.34227526701990957,"lat":39.47858033137406},"update_jcd":1734715155}},{"type":"Feature","geometry":{"coordinates":[-0.3729122732215235,39.48141722170027],"type":"Point"},"properties":{"address":"CALLE SANTA AMALIA  2, esquina POETA BODRIA","number":131,"open":"T","available":2,"free":18,"total":20,"ticket":"F","updated_at":"20\/12\/2024 17:19:51","geo_point_2d":{"lon":-0.3729122732215235,"lat":39.48141722170027},"update_jcd":1734715038}},{"type":"Feature","geometry":{"coordinates":[-0.38664740957644866,39.489438388167024],"type":"Point"},"properties":{"address":"Monduber - Peset Aleixandre","number":174,"open":"T","available":1,"free":18,"total":19,"ticket":"F","updated_at":"20\/12\/2024 17:19:51","geo_point_2d":{"lon":-0.38664740957644866,"lat":39.489438388167024},"update_jcd":1734715016}},{"type":"Feature","geometry":{"coordinates":[-0.38287339995719183,39.485706374097916],"type":"Point"},"properties":{"address":"Reus - Alquer\u00eda de la Estrella","number":139,"open":"T","available":13,"free":2,"total":15,"ticket":"F","updated_at":"20\/12\/2024 17:19:51","geo_point_2d":{"lon":-0.38287339995719183,"lat":39.485706374097916},"update_jcd":1734714799}},{"type":"Feature","geometry":{"coordinates":[-0.3295542305651281,39.469876296228996],"type":"Point"},"properties":{"address":"Pescadores - Progreso","number":154,"open":"T","available":4,"free":11,"total":15,"ticket":"F","updated_at":"20\/12\/2024 17:19:51","geo_point_2d":{"lon":-0.3295542305651281,"lat":39.469876296228996},"update_jcd":1734715031}},{"type":"Feature","geometry":{"coordinates":[-0.3763453968184098,39.46096428829767],"type":"Point"},"properties":{"address":"Puerto Rico - Cuba","number":156,"open":"T","available":8,"free":6,"total":15,"ticket":"F","updated_at":"20\/12\/2024 17:19:51","geo_point_2d":{"lon":-0.3763453968184098,"lat":39.46096428829767},"update_jcd":1734715027}},{"type":"Feature","geometry":{"coordinates":[-0.38736643250783204,39.46405230416093],"type":"Point"},"properties":{"address":"P\u00e9rez Gald\u00f3s - Marqu\u00e9s de Zenete","number":157,"open":"T","available":4,"free":15,"total":20,"ticket":"F","updated_at":"20\/12\/2024 17:19:51","geo_point_2d":{"lon":-0.38736643250783204,"lat":39.46405230416093},"update_jcd":1734714999}},{"type":"Feature","geometry":{"coordinates":[-0.3347222532485526,39.463449276866356],"type":"Point"},"properties":{"address":"Francisco Cubells - San Jos\u00e9 de la Vega","number":159,"open":"T","available":10,"free":7,"total":17,"ticket":"F","updated_at":"20\/12\/2024 17:19:51","geo_point_2d":{"lon":-0.3347222532485526,"lat":39.463449276866356},"update_jcd":1734715115}},{"type":"Feature","geometry":{"coordinates":[-0.3234012136184579,39.46443727525528],"type":"Point"},"properties":{"address":"Paseo Neptuno 32-34","number":163,"open":"T","available":15,"free":5,"total":20,"ticket":"F","updated_at":"20\/12\/2024 17:19:51","geo_point_2d":{"lon":-0.3234012136184579,"lat":39.46443727525528},"update_jcd":1734715161}},{"type":"Feature","geometry":{"coordinates":[-0.33898126470999496,39.467336291769534],"type":"Point"},"properties":{"address":"Jos\u00e9 Mar\u00eda de Haro - Justo y Pastor","number":160,"open":"T","available":8,"free":12,"total":20,"ticket":"F","updated_at":"20\/12\/2024 17:19:51","geo_point_2d":{"lon":-0.33898126470999496,"lat":39.467336291769534},"update_jcd":1734715004}},{"type":"Feature","geometry":{"coordinates":[-0.3297952360224295,39.46360427573933],"type":"Point"},"properties":{"address":"Armada Espa\u00f1ola - Mariano Cuber","number":162,"open":"T","available":1,"free":17,"total":19,"ticket":"F","updated_at":"20\/12\/2024 17:19:51","geo_point_2d":{"lon":-0.3297952360224295,"lat":39.46360427573933},"update_jcd":1734715136}},{"type":"Feature","geometry":{"coordinates":[-0.36642636792637634,39.45547226612543],"type":"Point"},"properties":{"address":"Av. de la Plata - Zapadores","number":179,"open":"T","available":14,"free":9,"total":23,"ticket":"F","updated_at":"20\/12\/2024 17:19:51","geo_point_2d":{"lon":-0.36642636792637634,"lat":39.45547226612543},"update_jcd":1734715135}},{"type":"Feature","geometry":{"coordinates":[-0.3681913713233589,39.45799927509706],"type":"Point"},"properties":{"address":"Zapadores, 23","number":181,"open":"T","available":2,"free":13,"total":15,"ticket":"F","updated_at":"20\/12\/2024 17:19:51","geo_point_2d":{"lon":-0.3681913713233589,"lat":39.45799927509706},"update_jcd":1734714613}},{"type":"Feature","geometry":{"coordinates":[-0.3395082613341325,39.48066419504159],"type":"Point"},"properties":{"address":"UPV Galileo","number":111,"open":"T","available":19,"free":11,"total":30,"ticket":"F","updated_at":"20\/12\/2024 17:19:51","geo_point_2d":{"lon":-0.3395082613341325,"lat":39.48066419504159},"update_jcd":1734714836}},{"type":"Feature","geometry":{"coordinates":[-0.36484133609518726,39.487671371814656],"type":"Point"},"properties":{"address":"Alboc\u00e1cer - Vinaroz","number":123,"open":"T","available":8,"free":12,"total":20,"ticket":"F","updated_at":"20\/12\/2024 17:19:51","geo_point_2d":{"lon":-0.36484133609518726,"lat":39.487671371814656},"update_jcd":1734714874}},{"type":"Feature","geometry":{"coordinates":[-0.3575613154471814,39.48325335356676],"type":"Point"},"properties":{"address":"Doctor Vicente Zaragoz\u00e1 - Ram\u00f3n Asensio","number":116,"open":"T","available":4,"free":11,"total":15,"ticket":"F","updated_at":"20\/12\/2024 17:19:51","geo_point_2d":{"lon":-0.3575613154471814,"lat":39.48325335356676},"update_jcd":1734715046}},{"type":"Feature","geometry":{"coordinates":[-0.3604163266878076,39.480466345728246],"type":"Point"},"properties":{"address":"G\u00f3mez Ferrer - \u00c1lvaro de Baz\u00e1n","number":118,"open":"T","available":9,"free":10,"total":20,"ticket":"F","updated_at":"20\/12\/2024 17:19:51","geo_point_2d":{"lon":-0.3604163266878076,"lat":39.480466345728246},"update_jcd":1734715129}},{"type":"Feature","geometry":{"coordinates":[-0.36204632906281087,39.484880361257815],"type":"Point"},"properties":{"address":"Doctor Vicente Zaragoz\u00e1 - Emilio Bar\u00f3","number":120,"open":"T","available":5,"free":13,"total":18,"ticket":"F","updated_at":"20\/12\/2024 17:19:51","geo_point_2d":{"lon":-0.36204632906281087,"lat":39.484880361257815},"update_jcd":1734714810}},{"type":"Feature","geometry":{"coordinates":[-0.3619553259600363,39.48850137319014],"type":"Point"},"properties":{"address":"Azagador de Alboraya - Dolores Marqu\u00e9s","number":124,"open":"T","available":0,"free":25,"total":25,"ticket":"F","updated_at":"20\/12\/2024 17:19:51","geo_point_2d":{"lon":-0.3619553259600363,"lat":39.48850137319014},"update_jcd":1734714839}},{"type":"Feature","geometry":{"coordinates":[-0.367544345093534,39.48876637693274],"type":"Point"},"properties":{"address":"Alfahuir - Pe\u00f1iscola","number":128,"open":"T","available":7,"free":18,"total":25,"ticket":"F","updated_at":"20\/12\/2024 17:19:51","geo_point_2d":{"lon":-0.367544345093534,"lat":39.48876637693274},"update_jcd":1734714845}},{"type":"Feature","geometry":{"coordinates":[-0.370210358642677,39.483238360081586],"type":"Point"},"properties":{"address":"Convento Carmelitas - Alboraya","number":130,"open":"T","available":5,"free":10,"total":15,"ticket":"F","updated_at":"20\/12\/2024 17:19:51","geo_point_2d":{"lon":-0.370210358642677,"lat":39.483238360081586},"update_jcd":1734714768}},{"type":"Feature","geometry":{"coordinates":[-0.3802074001545322,39.47320133107913],"type":"Point"},"properties":{"address":"Pie de la Cruz - Rejas","number":147,"open":"T","available":8,"free":6,"total":15,"ticket":"F","updated_at":"20\/12\/2024 17:19:51","geo_point_2d":{"lon":-0.3802074001545322,"lat":39.47320133107913},"update_jcd":1734715127}},{"type":"Feature","geometry":{"coordinates":[-0.36179534600499663,39.462934287947085],"type":"Point"},"properties":{"address":"Peris y Valero - Salamanca","number":149,"open":"T","available":10,"free":10,"total":20,"ticket":"F","updated_at":"20\/12\/2024 17:19:51","geo_point_2d":{"lon":-0.36179534600499663,"lat":39.462934287947085},"update_jcd":1734714572}},{"type":"Feature","geometry":{"coordinates":[-0.3630783484267159,39.46495329574819],"type":"Point"},"properties":{"address":"Salamanca - Reina Do\u00f1a Germana","number":155,"open":"T","available":7,"free":12,"total":20,"ticket":"F","updated_at":"20\/12\/2024 17:19:51","geo_point_2d":{"lon":-0.3630783484267159,"lat":39.46495329574819},"update_jcd":1734714725}},{"type":"Feature","geometry":{"coordinates":[-0.3880664379854734,39.45957528956863],"type":"Point"},"properties":{"address":"Jer\u00f3nimo Mu\u00f1oz - Gaspar Aguilar","number":196,"open":"T","available":12,"free":3,"total":15,"ticket":"F","updated_at":"20\/12\/2024 17:19:51","geo_point_2d":{"lon":-0.3880664379854734,"lat":39.45957528956863},"update_jcd":1734715066}},{"type":"Feature","geometry":{"coordinates":[-0.395316462028443,39.46088029740053],"type":"Point"},"properties":{"address":"Fontanars dels Aforins - Vall d'Uix\u00f3","number":198,"open":"T","available":2,"free":18,"total":20,"ticket":"F","updated_at":"20\/12\/2024 17:19:51","geo_point_2d":{"lon":-0.395316462028443,"lat":39.46088029740053},"update_jcd":1734714860}},{"type":"Feature","geometry":{"coordinates":[-0.39333444304417053,39.47622234753723],"type":"Point"},"properties":{"address":"Pechina - Teruel","number":202,"open":"T","available":10,"free":10,"total":20,"ticket":"F","updated_at":"20\/12\/2024 17:19:51","geo_point_2d":{"lon":-0.39333444304417053,"lat":39.47622234753723},"update_jcd":1734715147}},{"type":"Feature","geometry":{"coordinates":[-0.37333936513208965,39.48765637635625],"type":"Point"},"properties":{"address":"Maximiliano Thous - Luz Casanova","number":134,"open":"T","available":3,"free":17,"total":20,"ticket":"F","updated_at":"20\/12\/2024 17:19:51","geo_point_2d":{"lon":-0.37333936513208965,"lat":39.48765637635625},"update_jcd":1734714855}},{"type":"Feature","geometry":{"coordinates":[-0.37561037166808026,39.48994138447594],"type":"Point"},"properties":{"address":"Economista Gay - Constituci\u00f3n","number":136,"open":"T","available":12,"free":8,"total":20,"ticket":"F","updated_at":"20\/12\/2024 17:19:51","geo_point_2d":{"lon":-0.37561037166808026,"lat":39.48994138447594},"update_jcd":1734714808}},{"type":"Feature","geometry":{"coordinates":[-0.37850138478156414,39.48570237196362],"type":"Point"},"properties":{"address":"Constituci\u00f3n - Reus","number":135,"open":"T","available":16,"free":4,"total":20,"ticket":"F","updated_at":"20\/12\/2024 17:19:51","geo_point_2d":{"lon":-0.37850138478156414,"lat":39.48570237196362},"update_jcd":1734715033}},{"type":"Feature","geometry":{"coordinates":[-0.3798963873712934,39.48903338344832],"type":"Point"},"properties":{"address":"Economista Gay - Luis Crumiere","number":137,"open":"T","available":8,"free":12,"total":20,"ticket":"F","updated_at":"20\/12\/2024 17:19:51","geo_point_2d":{"lon":-0.3798963873712934,"lat":39.48903338344832},"update_jcd":1734715121}},{"type":"Feature","geometry":{"coordinates":[-0.386718436578698,39.45514627443484],"type":"Point"},"properties":{"address":"Uruguay - Carteros","number":193,"open":"T","available":4,"free":16,"total":20,"ticket":"F","updated_at":"20\/12\/2024 17:19:51","geo_point_2d":{"lon":-0.386718436578698,"lat":39.45514627443484},"update_jcd":1734714973}},{"type":"Feature","geometry":{"coordinates":[-0.3983214623957442,39.47385534208041],"type":"Point"},"properties":{"address":"Cast\u00e1n Tobe\u00f1as - Patriques","number":220,"open":"T","available":10,"free":6,"total":16,"ticket":"F","updated_at":"20\/12\/2024 17:19:51","geo_point_2d":{"lon":-0.3983214623957442,"lat":39.47385534208041},"update_jcd":1734714613}},{"type":"Feature","geometry":{"coordinates":[-0.40357449843597065,39.45028826570709],"type":"Point"},"properties":{"address":"Dels Gremis - Campos Crespo","number":252,"open":"T","available":10,"free":9,"total":20,"ticket":"F","updated_at":"20\/12\/2024 17:19:51","geo_point_2d":{"lon":-0.40357449843597065,"lat":39.45028826570709},"update_jcd":1734715054}},{"type":"Feature","geometry":{"coordinates":[-0.3930154660803912,39.44546024514969],"type":"Point"},"properties":{"address":"Pio IX - M\u00fasico Cabanilles","number":259,"open":"T","available":19,"free":1,"total":20,"ticket":"F","updated_at":"20\/12\/2024 17:19:51","geo_point_2d":{"lon":-0.3930154660803912,"lat":39.44546024514969},"update_jcd":1734715075}},{"type":"Feature","geometry":{"coordinates":[-0.4096445056541294,39.467043324648515],"type":"Point"},"properties":{"address":"Padre Esteban Pernet - Casa Misericordia","number":263,"open":"T","available":2,"free":16,"total":18,"ticket":"F","updated_at":"20\/12\/2024 17:19:51","geo_point_2d":{"lon":-0.4096445056541294,"lat":39.467043324648515},"update_jcd":1734714839}},{"type":"Feature","geometry":{"coordinates":[-0.4144325204450301,39.46916033373618],"type":"Point"},"properties":{"address":"Av. del Cid - Marconi","number":264,"open":"T","available":0,"free":20,"total":20,"ticket":"F","updated_at":"20\/12\/2024 17:19:51","geo_point_2d":{"lon":-0.4144325204450301,"lat":39.46916033373618},"update_jcd":1734714912}},{"type":"Feature","geometry":{"coordinates":[-0.3332722584595297,39.450305232524904],"type":"Point"},"properties":{"address":"Moraira - Alta del Mar","number":273,"open":"T","available":13,"free":2,"total":15,"ticket":"F","updated_at":"20\/12\/2024 17:19:51","geo_point_2d":{"lon":-0.3332722584595297,"lat":39.450305232524904},"update_jcd":1734714844}},{"type":"Feature","geometry":{"coordinates":[-0.3973844614710405,39.47074033078547],"type":"Point"},"properties":{"address":"Olimpia Arozena Torres - Juan Bautista Vives","number":218,"open":"T","available":1,"free":13,"total":15,"ticket":"F","updated_at":"20\/12\/2024 17:19:51","geo_point_2d":{"lon":-0.3973844614710405,"lat":39.47074033078547},"update_jcd":1734715071}},{"type":"Feature","geometry":{"coordinates":[-0.38678440634001116,39.49475040560395],"type":"Point"},"properties":{"address":"Poeta Serrano Clavero - General Llorens","number":230,"open":"T","available":1,"free":14,"total":15,"ticket":"F","updated_at":"20\/12\/2024 17:19:51","geo_point_2d":{"lon":-0.38678440634001116,"lat":39.49475040560395},"update_jcd":1734715143}},{"type":"Feature","geometry":{"coordinates":[-0.36575333473149996,39.49464439592328],"type":"Point"},"properties":{"address":"San Vicente Paul - Santiago Rusi\u00f1ol","number":232,"open":"T","available":2,"free":13,"total":15,"ticket":"F","updated_at":"20\/12\/2024 17:19:51","geo_point_2d":{"lon":-0.36575333473149996,"lat":39.49464439592328},"update_jcd":1734714858}},{"type":"Feature","geometry":{"coordinates":[-0.39288942312141745,39.50007542649037],"type":"Point"},"properties":{"address":"Ninot - Regino Mas","number":270,"open":"T","available":4,"free":12,"total":16,"ticket":"F","updated_at":"20\/12\/2024 17:19:51","geo_point_2d":{"lon":-0.39288942312141745,"lat":39.50007542649037},"update_jcd":1734714737}},{"type":"Feature","geometry":{"coordinates":[-0.38857844617931064,39.451692263769644],"type":"Point"},"properties":{"address":"Carteros - Mossen Febrer","number":208,"open":"T","available":14,"free":6,"total":20,"ticket":"F","updated_at":"20\/12\/2024 17:19:51","geo_point_2d":{"lon":-0.38857844617931064,"lat":39.451692263769644},"update_jcd":1734714649}},{"type":"Feature","geometry":{"coordinates":[-0.39671647037206986,39.45555328036534],"type":"Point"},"properties":{"address":"Campos Crespo - Juan de Garay","number":210,"open":"T","available":3,"free":12,"total":15,"ticket":"F","updated_at":"20\/12\/2024 17:19:51","geo_point_2d":{"lon":-0.39671647037206986,"lat":39.45555328036534},"update_jcd":1734715128}},{"type":"Feature","geometry":{"coordinates":[-0.4005764763988502,39.464932313028335],"type":"Point"},"properties":{"address":"Santa Cruz de Tenerife, 21","number":214,"open":"T","available":5,"free":10,"total":15,"ticket":"F","updated_at":"20\/12\/2024 17:19:51","geo_point_2d":{"lon":-0.4005764763988502,"lat":39.464932313028335},"update_jcd":1734714799}},{"type":"Feature","geometry":{"coordinates":[-0.39301546105732643,39.45208226727133],"type":"Point"},"properties":{"address":"Gaspar Aguilar - M\u00fasico Penella","number":209,"open":"T","available":6,"free":12,"total":18,"ticket":"F","updated_at":"20\/12\/2024 17:19:51","geo_point_2d":{"lon":-0.39301546105732643,"lat":39.45208226727133},"update_jcd":1734714658}},{"type":"Feature","geometry":{"coordinates":[-0.39697246591763863,39.463165305912604],"type":"Point"},"properties":{"address":"Archiduque Carlos - Jos\u00e9 Mar\u00eda Mortes Lerma","number":213,"open":"T","available":1,"free":14,"total":15,"ticket":"F","updated_at":"20\/12\/2024 17:19:51","geo_point_2d":{"lon":-0.39697246591763863,"lat":39.463165305912604},"update_jcd":1734714749}},{"type":"Feature","geometry":{"coordinates":[-0.39674846254882856,39.46567131414367],"type":"Point"},"properties":{"address":"M\u00fasico Ayll\u00f3n - Francisco Dolz","number":215,"open":"T","available":3,"free":12,"total":15,"ticket":"F","updated_at":"20\/12\/2024 17:19:51","geo_point_2d":{"lon":-0.39674846254882856,"lat":39.46567131414367},"update_jcd":1734715134}},{"type":"Feature","geometry":{"coordinates":[-0.40358847435527895,39.480568366964896],"type":"Point"},"properties":{"address":"Jorge Comin (Metge) - Terrateig","number":224,"open":"T","available":5,"free":15,"total":20,"ticket":"F","updated_at":"20\/12\/2024 17:19:51","geo_point_2d":{"lon":-0.40358847435527895,"lat":39.480568366964896},"update_jcd":1734714912}},{"type":"Feature","geometry":{"coordinates":[-0.3988594505654264,39.49086439918327],"type":"Point"},"properties":{"address":"Corts Valencianes - La Safor","number":226,"open":"T","available":11,"free":19,"total":30,"ticket":"F","updated_at":"20\/12\/2024 17:19:51","geo_point_2d":{"lon":-0.3988594505654264,"lat":39.49086439918327},"update_jcd":1734715123}},{"type":"Feature","geometry":{"coordinates":[-0.38227839001583847,39.49506640496422],"type":"Point"},"properties":{"address":"Rio Segre - Rafael Company","number":236,"open":"T","available":4,"free":11,"total":15,"ticket":"F","updated_at":"20\/12\/2024 17:19:51","geo_point_2d":{"lon":-0.38227839001583847,"lat":39.49506640496422},"update_jcd":1734714902}},{"type":"Feature","geometry":{"coordinates":[-0.40154745608135123,39.495004413973305],"type":"Point"},"properties":{"address":"Camp del Turia - Corts Valencianes","number":240,"open":"T","available":2,"free":18,"total":20,"ticket":"F","updated_at":"20\/12\/2024 17:19:51","geo_point_2d":{"lon":-0.40154745608135123,"lat":39.495004413973305},"update_jcd":1734714978}},{"type":"Feature","geometry":{"coordinates":[-0.4041974712326189,39.487907391410516],"type":"Point"},"properties":{"address":"La Safor - Maestro Rodrigo","number":242,"open":"T","available":9,"free":6,"total":15,"ticket":"F","updated_at":"20\/12\/2024 17:19:51","geo_point_2d":{"lon":-0.4041974712326189,"lat":39.487907391410516},"update_jcd":1734714698}},{"type":"Feature","geometry":{"coordinates":[-0.39103842063587124,39.494758407776374],"type":"Point"},"properties":{"address":"Levante U.D. - Ecuador","number":237,"open":"T","available":13,"free":2,"total":15,"ticket":"F","updated_at":"20\/12\/2024 17:19:51","geo_point_2d":{"lon":-0.39103842063587124,"lat":39.494758407776374},"update_jcd":1734715026}},{"type":"Feature","geometry":{"coordinates":[-0.40527029936434095,39.47213024806011],"type":"Point"},"properties":{"address":"Nueve de Octubre - Cieza","number":245,"open":"T","available":0,"free":20,"total":20,"ticket":"F","updated_at":"20\/12\/2024 17:19:51","geo_point_2d":{"lon":-0.40527029936434095,"lat":39.47213024806011},"update_jcd":1734714971}},{"type":"Feature","geometry":{"coordinates":[-0.35878734087160885,39.455509261762266],"type":"Point"},"properties":{"address":"Pintor Luis Arcas - Inst. Obrero Valenciano","number":46,"open":"T","available":19,"free":1,"total":20,"ticket":"F","updated_at":"20\/12\/2024 17:19:51","geo_point_2d":{"lon":-0.35878734087160885,"lat":39.455509261762266},"update_jcd":1734714934}},{"type":"Feature","geometry":{"coordinates":[-0.38408341393871137,39.472798331478145],"type":"Point"},"properties":{"address":"Guillem de Castro - San Pedro Pascual","number":6,"open":"T","available":1,"free":14,"total":15,"ticket":"F","updated_at":"20\/12\/2024 17:19:51","geo_point_2d":{"lon":-0.38408341393871137,"lat":39.472798331478145},"update_jcd":1734715147}},{"type":"Feature","geometry":{"coordinates":[-0.35855273823228967,39.450807354184086],"type":"Point"},"properties":{"address":"Antonio Ferrandis - General Urrutia","number":48,"open":"T","available":18,"free":2,"total":20,"ticket":"F","updated_at":"20\/12\/2024 17:19:51","geo_point_2d":{"lon":-0.35855273823228967,"lat":39.450807354184086},"update_jcd":1734715136}},{"type":"Feature","geometry":{"coordinates":[-0.37087436964085335,39.4720623227334],"type":"Point"},"properties":{"address":"Alfonso el Magn\u00e1nimo - Nave","number":13,"open":"T","available":11,"free":13,"total":24,"ticket":"F","updated_at":"20\/12\/2024 17:19:51","geo_point_2d":{"lon":-0.37087436964085335,"lat":39.4720623227334},"update_jcd":1734715122}},{"type":"Feature","geometry":{"coordinates":[-0.3472273049060467,39.45218324552497],"type":"Point"},"properties":{"address":"Moreras (Oceanogr\u00e1fico)","number":51,"open":"T","available":14,"free":6,"total":20,"ticket":"F","updated_at":"20\/12\/2024 17:19:51","geo_point_2d":{"lon":-0.3472273049060467,"lat":39.45218324552497},"update_jcd":1734714668}},{"type":"Feature","geometry":{"coordinates":[-0.3528593228128155,39.453318252515686],"type":"Point"},"properties":{"address":"Autopista del Saler - Antonio Ferrandis (C.C. El Saler)","number":50,"open":"T","available":11,"free":29,"total":40,"ticket":"F","updated_at":"20\/12\/2024 17:19:51","geo_point_2d":{"lon":-0.3528593228128155,"lat":39.453318252515686},"update_jcd":1734714913}},{"type":"Feature","geometry":{"coordinates":[-0.3861784216967592,39.471628328748515],"type":"Point"},"properties":{"address":"Fernando el Cat\u00f3lico - Erudito Orellana","number":23,"open":"T","available":0,"free":19,"total":19,"ticket":"F","updated_at":"20\/12\/2024 17:19:51","geo_point_2d":{"lon":-0.3861784216967592,"lat":39.471628328748515},"update_jcd":1734714889}},{"type":"Feature","geometry":{"coordinates":[-0.3754363798581042,39.479072348860946],"type":"Point"},"properties":{"address":"Plaza de los Fueros - Conde Trenor","number":36,"open":"T","available":8,"free":17,"total":25,"ticket":"F","updated_at":"20\/12\/2024 17:19:51","geo_point_2d":{"lon":-0.3754363798581042,"lat":39.479072348860946},"update_jcd":1734715132}},{"type":"Feature","geometry":{"coordinates":[-0.3586583378805894,39.45878127329601],"type":"Point"},"properties":{"address":"Av. de la Plata (Museo Fallero)","number":42,"open":"T","available":14,"free":6,"total":20,"ticket":"F","updated_at":"20\/12\/2024 17:19:51","geo_point_2d":{"lon":-0.3586583378805894,"lat":39.45878127329601},"update_jcd":1734714818}},{"type":"Feature","geometry":{"coordinates":[-0.36301435452576164,39.45642926768604],"type":"Point"},"properties":{"address":"General Urrutia - Av. de la Plata","number":44,"open":"T","available":17,"free":2,"total":19,"ticket":"F","updated_at":"20\/12\/2024 17:19:51","geo_point_2d":{"lon":-0.36301435452576164,"lat":39.45642926768604},"update_jcd":1734715115}},{"type":"Feature","geometry":{"coordinates":[-0.3878474253260651,39.47503434099054],"type":"Point"},"properties":{"address":"Quart - Fernando el Cat\u00f3lico","number":20,"open":"T","available":13,"free":3,"total":16,"ticket":"F","updated_at":"20\/12\/2024 17:19:51","geo_point_2d":{"lon":-0.3878474253260651,"lat":39.47503434099054},"update_jcd":1734714910}},{"type":"Feature","geometry":{"coordinates":[-0.38861043334080225,39.46772931656263],"type":"Point"},"properties":{"address":"Alberique, 18 (Abastos)","number":25,"open":"T","available":5,"free":18,"total":23,"ticket":"F","updated_at":"20\/12\/2024 17:19:51","geo_point_2d":{"lon":-0.38861043334080225,"lat":39.46772931656263},"update_jcd":1734715007}},{"type":"Feature","geometry":{"coordinates":[-0.3739313916673185,39.457854277261184],"type":"Point"},"properties":{"address":"Peris y Valero - Cuba","number":39,"open":"T","available":8,"free":11,"total":19,"ticket":"F","updated_at":"20\/12\/2024 17:19:51","geo_point_2d":{"lon":-0.3739313916673185,"lat":39.457854277261184},"update_jcd":1734714962}},{"type":"Feature","geometry":{"coordinates":[-0.3421522812931475,39.45981126842254],"type":"Point"},"properties":{"address":"Menorca - Baleares","number":62,"open":"T","available":11,"free":9,"total":20,"ticket":"F","updated_at":"20\/12\/2024 17:19:51","geo_point_2d":{"lon":-0.3421522812931475,"lat":39.45981126842254},"update_jcd":1734715097}},{"type":"Feature","geometry":{"coordinates":[-0.36185535292343096,39.45381925759081],"type":"Point"},"properties":{"address":"Hermanos Maristas - General Urrutia","number":45,"open":"T","available":13,"free":2,"total":15,"ticket":"F","updated_at":"20\/12\/2024 17:19:51","geo_point_2d":{"lon":-0.36185535292343096,"lat":39.45381925759081},"update_jcd":1734714962}},{"type":"Feature","geometry":{"coordinates":[-0.3716462894107889,39.469213221319464],"type":"Point"},"properties":{"address":"Col\u00f3n, 44","number":70,"open":"T","available":16,"free":1,"total":17,"ticket":"F","updated_at":"20\/12\/2024 17:19:51","geo_point_2d":{"lon":-0.3716462894107889,"lat":39.469213221319464},"update_jcd":1734715067}},{"type":"Feature","geometry":{"coordinates":[-0.33522597686590844,39.467123092394516],"type":"Point"},"properties":{"address":"Serrer\u00eda, 67","number":84,"open":"T","available":15,"free":0,"total":15,"ticket":"F","updated_at":"20\/12\/2024 17:19:51","geo_point_2d":{"lon":-0.33522597686590844,"lat":39.467123092394516},"update_jcd":1734714943}},{"type":"Feature","geometry":{"coordinates":[-0.35158330144926053,39.47537832465668],"type":"Point"},"properties":{"address":"Blasco Iba\u00f1ez - Clariano","number":94,"open":"T","available":18,"free":0,"total":20,"ticket":"F","updated_at":"20\/12\/2024 17:19:51","geo_point_2d":{"lon":-0.35158330144926053,"lat":39.47537832465668},"update_jcd":1734715141}},{"type":"Feature","geometry":{"coordinates":[-0.3482142912637639,39.47355431688417],"type":"Point"},"properties":{"address":"Blasco Iba\u00f1ez - Yecla","number":96,"open":"T","available":0,"free":21,"total":21,"ticket":"F","updated_at":"20\/12\/2024 17:19:51","geo_point_2d":{"lon":-0.3482142912637639,"lat":39.47355431688417},"update_jcd":1734715155}},{"type":"Feature","geometry":{"coordinates":[-0.348442294427372,39.469680303996114],"type":"Point"},"properties":{"address":"Justo y Pastor - Duque de Gaeta","number":98,"open":"T","available":5,"free":9,"total":15,"ticket":"F","updated_at":"20\/12\/2024 17:19:51","geo_point_2d":{"lon":-0.348442294427372,"lat":39.469680303996114},"update_jcd":1734715052}},{"type":"Feature","geometry":{"coordinates":[-0.36757337969703135,39.44412522887422],"type":"Point"},"properties":{"address":"Grabador Jordan - Escultor Pastor","number":91,"open":"T","available":3,"free":11,"total":15,"ticket":"F","updated_at":"20\/12\/2024 17:19:51","geo_point_2d":{"lon":-0.36757337969703135,"lat":39.44412522887422},"update_jcd":1734715031}},{"type":"Feature","geometry":{"coordinates":[-0.34380927742382206,39.472282310670764],"type":"Point"},"properties":{"address":"Blasco Iba\u00f1ez - Poeta Dur\u00e1n Tortajada","number":93,"open":"T","available":8,"free":30,"total":38,"ticket":"F","updated_at":"20\/12\/2024 17:19:51","geo_point_2d":{"lon":-0.34380927742382206,"lat":39.472282310670764},"update_jcd":1734715028}},{"type":"Feature","geometry":{"coordinates":[-0.34611927939668474,39.47983533734356],"type":"Point"},"properties":{"address":"Naranjos (Magisterio)","number":95,"open":"T","available":16,"free":17,"total":33,"ticket":"F","updated_at":"20\/12\/2024 17:19:51","geo_point_2d":{"lon":-0.34611927939668474,"lat":39.47983533734356},"update_jcd":1734715104}},{"type":"Feature","geometry":{"coordinates":[-0.38292927973315827,39.48004223020643],"type":"Point"},"properties":{"address":"C\/GUILLEM DE CASTRO esquina con C\/NA JORDANA","number":1,"open":"T","available":10,"free":14,"total":25,"ticket":"F","updated_at":"20\/12\/2024 17:19:51","geo_point_2d":{"lon":-0.38292927973315827,"lat":39.48004223020643},"update_jcd":1734714611}},{"type":"Feature","geometry":{"coordinates":[-0.3797483936090024,39.479889353348874],"type":"Point"},"properties":{"address":"Salvador Giner - C. Museo","number":2,"open":"T","available":0,"free":15,"total":15,"ticket":"F","updated_at":"20\/12\/2024 17:19:51","geo_point_2d":{"lon":-0.3797483936090024,"lat":39.479889353348874},"update_jcd":1734714824}},{"type":"Feature","geometry":{"coordinates":[-0.3711403661399108,39.476895339123786],"type":"Point"},"properties":{"address":"Plaza Poeta Llorente","number":5,"open":"T","available":4,"free":11,"total":15,"ticket":"F","updated_at":"20\/12\/2024 17:19:51","geo_point_2d":{"lon":-0.3711403661399108,"lat":39.476895339123786},"update_jcd":1734715006}},{"type":"Feature","geometry":{"coordinates":[-0.3818514137102655,39.463362299305594],"type":"Point"},"properties":{"address":"San Vicente Martir - Doctor Vil\u00e1 Barber\u00e1","number":27,"open":"T","available":4,"free":16,"total":20,"ticket":"F","updated_at":"20\/12\/2024 17:19:51","geo_point_2d":{"lon":-0.3818514137102655,"lat":39.463362299305594},"update_jcd":1734714775}},{"type":"Feature","geometry":{"coordinates":[-0.37399038562310283,39.46481830023885],"type":"Point"},"properties":{"address":"German\u00edas - Ruzafa","number":33,"open":"T","available":5,"free":14,"total":20,"ticket":"F","updated_at":"20\/12\/2024 17:19:51","geo_point_2d":{"lon":-0.37399038562310283,"lat":39.46481830023885},"update_jcd":1734714966}},{"type":"Feature","geometry":{"coordinates":[-0.36188033357859983,39.47851834019109],"type":"Point"},"properties":{"address":"Blasco Iba\u00f1ez - Doctor G\u00f3mez Ferrer (Cl\u00ednico)","number":87,"open":"T","available":1,"free":32,"total":33,"ticket":"F","updated_at":"20\/12\/2024 17:19:51","geo_point_2d":{"lon":-0.36188033357859983,"lat":39.47851834019109},"update_jcd":1734715063}},{"type":"Feature","geometry":{"coordinates":[-0.38029642271654757,39.44608224133691],"type":"Point"},"properties":{"address":"Cra. Malilla - Bulevar Sur","number":190,"open":"T","available":0,"free":18,"total":18,"ticket":"F","updated_at":"20\/12\/2024 17:19:51","geo_point_2d":{"lon":-0.38029642271654757,"lat":39.44608224133691},"update_jcd":1734714575}},{"type":"Feature","geometry":{"coordinates":[-0.346720283882565,39.47583332394092],"type":"Point"},"properties":{"address":"Ram\u00f3n Llull - Serpis","number":102,"open":"T","available":14,"free":6,"total":20,"ticket":"F","updated_at":"20\/12\/2024 17:19:51","geo_point_2d":{"lon":-0.346720283882565,"lat":39.47583332394092},"update_jcd":1734715073}},{"type":"Feature","geometry":{"coordinates":[-0.32900821806202085,39.483060339803416],"type":"Point"},"properties":{"address":"Gran Canaria - Ingeniero Manuel Maese","number":171,"open":"T","available":13,"free":2,"total":15,"ticket":"F","updated_at":"20\/12\/2024 17:19:51","geo_point_2d":{"lon":-0.32900821806202085,"lat":39.483060339803416},"update_jcd":1734715099}},{"type":"Feature","geometry":{"coordinates":[-0.3317262387298495,39.46796929073871],"type":"Point"},"properties":{"address":"Mediterr\u00e1neo - Plaza Cruz de Ca\u00f1amelar","number":161,"open":"T","available":1,"free":14,"total":15,"ticket":"F","updated_at":"20\/12\/2024 17:19:51","geo_point_2d":{"lon":-0.3317262387298495,"lat":39.46796929073871},"update_jcd":1734714669}},{"type":"Feature","geometry":{"coordinates":[-0.3246342149862025,39.46846028903177],"type":"Point"},"properties":{"address":"Pav\u00eda - Columbretes","number":164,"open":"T","available":0,"free":17,"total":17,"ticket":"F","updated_at":"20\/12\/2024 17:19:51","geo_point_2d":{"lon":-0.3246342149862025,"lat":39.46846028903177},"update_jcd":1734715153}},{"type":"Feature","geometry":{"coordinates":[-0.32533420529241996,39.482973337910934],"type":"Point"},"properties":{"address":"Isabel de Villena - Mendiz\u00e1bal","number":170,"open":"T","available":3,"free":17,"total":20,"ticket":"F","updated_at":"20\/12\/2024 17:19:51","geo_point_2d":{"lon":-0.32533420529241996,"lat":39.482973337910934},"update_jcd":1734714960}},{"type":"Feature","geometry":{"coordinates":[-0.3933454386575609,39.48146236504626],"type":"Point"},"properties":{"address":"P\u00edo XII - Campanar","number":172,"open":"T","available":9,"free":11,"total":20,"ticket":"F","updated_at":"20\/12\/2024 17:19:51","geo_point_2d":{"lon":-0.3933454386575609,"lat":39.48146236504626},"update_jcd":1734714723}},{"type":"Feature","geometry":{"coordinates":[-0.3734883620528129,39.493545396079504],"type":"Point"},"properties":{"address":"Alcudia de Crespins - Pedro Patricio Mey","number":177,"open":"T","available":2,"free":12,"total":15,"ticket":"F","updated_at":"20\/12\/2024 17:19:51","geo_point_2d":{"lon":-0.3734883620528129,"lat":39.493545396079504},"update_jcd":1734715067}},{"type":"Feature","geometry":{"coordinates":[-0.3722843899417025,39.45262025913349],"type":"Point"},"properties":{"address":"Ausias March - Av. de la Plata","number":183,"open":"T","available":11,"free":7,"total":18,"ticket":"F","updated_at":"20\/12\/2024 17:19:51","geo_point_2d":{"lon":-0.3722843899417025,"lat":39.45262025913349},"update_jcd":1734714803}},{"type":"Feature","geometry":{"coordinates":[-0.3706833820688013,39.45602126922772],"type":"Point"},"properties":{"address":"Doctor Waksman - Nieves","number":180,"open":"T","available":17,"free":3,"total":20,"ticket":"F","updated_at":"20\/12\/2024 17:19:51","geo_point_2d":{"lon":-0.3706833820688013,"lat":39.45602126922772},"update_jcd":1734714681}},{"type":"Feature","geometry":{"coordinates":[-0.37496539716978367,39.455432269344854],"type":"Point"},"properties":{"address":"Ausias March - Pianista Amparo Iturbi","number":182,"open":"T","available":5,"free":16,"total":21,"ticket":"F","updated_at":"20\/12\/2024 17:19:51","geo_point_2d":{"lon":-0.37496539716978367,"lat":39.455432269344854},"update_jcd":1734714844}},{"type":"Feature","geometry":{"coordinates":[-0.3348422811122132,39.47022899172744],"type":"Point"},"properties":{"address":"Marino Blas de Lezo (estaci\u00f3n Caba\u00f1al Adif)","number":101,"open":"T","available":6,"free":24,"total":30,"ticket":"F","updated_at":"20\/12\/2024 17:19:51","geo_point_2d":{"lon":-0.3348422811122132,"lat":39.47022899172744},"update_jcd":1734715137}},{"type":"Feature","geometry":{"coordinates":[-0.34138726522688073,39.47674432466283],"type":"Point"},"properties":{"address":"Albalat dels Tarongers - Professor Ernest Lluch","number":106,"open":"T","available":14,"free":11,"total":25,"ticket":"F","updated_at":"20\/12\/2024 17:19:51","geo_point_2d":{"lon":-0.34138726522688073,"lat":39.47674432466283},"update_jcd":1734715088}},{"type":"Feature","geometry":{"coordinates":[-0.3339152679031098,39.47382619077011],"type":"Point"},"properties":{"address":"Lu\u00eds Peix\u00f3 20","number":108,"open":"T","available":4,"free":11,"total":15,"ticket":"F","updated_at":"20\/12\/2024 17:19:51","geo_point_2d":{"lon":-0.3339152679031098,"lat":39.47382619077011},"update_jcd":1734715120}},{"type":"Feature","geometry":{"coordinates":[-0.3705033850186671,39.45004424948915],"type":"Point"},"properties":{"address":"Ebanista Caselles - Ausias March","number":185,"open":"T","available":8,"free":7,"total":15,"ticket":"F","updated_at":"20\/12\/2024 17:19:51","geo_point_2d":{"lon":-0.3705033850186671,"lat":39.45004424948915},"update_jcd":1734714865}},{"type":"Feature","geometry":{"coordinates":[-0.3362242490922528,39.47524531713643],"type":"Point"},"properties":{"address":"Campillo de Altobuey (Polideportivo)","number":107,"open":"T","available":12,"free":3,"total":15,"ticket":"F","updated_at":"20\/12\/2024 17:19:51","geo_point_2d":{"lon":-0.3362242490922528,"lat":39.47524531713643},"update_jcd":1734715078}},{"type":"Feature","geometry":{"coordinates":[-0.3335102388084858,39.4768193210939],"type":"Point"},"properties":{"address":"Naranjos - Ingeniero Fausto Elio","number":109,"open":"T","available":6,"free":13,"total":20,"ticket":"F","updated_at":"20\/12\/2024 17:19:51","geo_point_2d":{"lon":-0.3335102388084858,"lat":39.4768193210939},"update_jcd":1734714636}},{"type":"Feature","geometry":{"coordinates":[-0.3521482985209469,39.481562345598135],"type":"Point"},"properties":{"address":"Catalu\u00f1a - Doctor Vicente Zaragoz\u00e1","number":115,"open":"T","available":1,"free":15,"total":16,"ticket":"F","updated_at":"20\/12\/2024 17:19:51","geo_point_2d":{"lon":-0.3521482985209469,"lat":39.481562345598135},"update_jcd":1734714997}},{"type":"Feature","geometry":{"coordinates":[-0.3644463333304693,39.49059138177909],"type":"Point"},"properties":{"address":"Alfahuir - Duque de Mandas","number":127,"open":"T","available":7,"free":13,"total":20,"ticket":"F","updated_at":"20\/12\/2024 17:19:51","geo_point_2d":{"lon":-0.3644463333304693,"lat":39.49059138177909},"update_jcd":1734715164}},{"type":"Feature","geometry":{"coordinates":[-0.3699453557741905,39.485975369089516],"type":"Point"},"properties":{"address":"Almazora - Benimuslem","number":129,"open":"T","available":17,"free":3,"total":20,"ticket":"F","updated_at":"20\/12\/2024 17:19:51","geo_point_2d":{"lon":-0.3699453557741905,"lat":39.485975369089516},"update_jcd":1734714671}},{"type":"Feature","geometry":{"coordinates":[-0.36010431604895277,39.49309838788837],"type":"Point"},"properties":{"address":"Alfahuir - Jos\u00e9 Chabas Bordehore","number":126,"open":"T","available":10,"free":10,"total":20,"ticket":"F","updated_at":"20\/12\/2024 17:19:51","geo_point_2d":{"lon":-0.36010431604895277,"lat":39.49309838788837},"update_jcd":1734714960}},{"type":"Feature","geometry":{"coordinates":[-0.38422240207482833,39.48819038284581],"type":"Point"},"properties":{"address":"San Pancracio - Periodista Llorente","number":138,"open":"T","available":1,"free":19,"total":20,"ticket":"F","updated_at":"20\/12\/2024 17:19:51","geo_point_2d":{"lon":-0.38422240207482833,"lat":39.48819038284581},"update_jcd":1734715094}},{"type":"Feature","geometry":{"coordinates":[-0.3896004206542252,39.48800438494039],"type":"Point"},"properties":{"address":"Campanar - Nicasio Benlloch","number":140,"open":"T","available":6,"free":14,"total":20,"ticket":"F","updated_at":"20\/12\/2024 17:19:51","geo_point_2d":{"lon":-0.3896004206542252,"lat":39.48800438494039},"update_jcd":1734715007}},{"type":"Feature","geometry":{"coordinates":[-0.38965942617943544,39.48192036501599],"type":"Point"},"properties":{"address":"Gregorio Gea - Profesor Beltr\u00e1n B\u00e1guena","number":142,"open":"T","available":3,"free":22,"total":25,"ticket":"F","updated_at":"20\/12\/2024 17:19:51","geo_point_2d":{"lon":-0.38965942617943544,"lat":39.48192036501599},"update_jcd":1734714704}},{"type":"Feature","geometry":{"coordinates":[-0.3932144497376184,39.467737319045916],"type":"Point"},"properties":{"address":"Av. del Cid - Juli\u00e1n Pe\u00f1a","number":200,"open":"T","available":4,"free":11,"total":15,"ticket":"F","updated_at":"20\/12\/2024 17:19:51","geo_point_2d":{"lon":-0.3932144497376184,"lat":39.467737319045916},"update_jcd":1734715146}},{"type":"Feature","geometry":{"coordinates":[-0.39366844724894096,39.47171233289752],"type":"Point"},"properties":{"address":"Perez Gald\u00f3s - Nou Moles","number":201,"open":"T","available":1,"free":19,"total":20,"ticket":"F","updated_at":"20\/12\/2024 17:19:51","geo_point_2d":{"lon":-0.39366844724894096,"lat":39.47171233289752},"update_jcd":1734715101}},{"type":"Feature","geometry":{"coordinates":[-0.40118246297404103,39.48460937883364],"type":"Point"},"properties":{"address":"Reina Violante - Escultor Garc\u00eda Mas","number":203,"open":"T","available":11,"free":4,"total":15,"ticket":"F","updated_at":"20\/12\/2024 17:19:51","geo_point_2d":{"lon":-0.40118246297404103,"lat":39.48460937883364},"update_jcd":1734714963}},{"type":"Feature","geometry":{"coordinates":[-0.3734343681182198,39.48528636793778],"type":"Point"},"properties":{"address":"Platero Su\u00e1rez - Milagrosa","number":132,"open":"T","available":9,"free":6,"total":15,"ticket":"F","updated_at":"20\/12\/2024 17:19:51","geo_point_2d":{"lon":-0.3734343681182198,"lat":39.48528636793778},"update_jcd":1734715121}},{"type":"Feature","geometry":{"coordinates":[-0.3740153970137416,39.45039125246078],"type":"Point"},"properties":{"address":"Benifair\u00f3 de Valldigna - Joaqu\u00edn Benlloch","number":186,"open":"T","available":14,"free":0,"total":14,"ticket":"F","updated_at":"20\/12\/2024 17:19:51","geo_point_2d":{"lon":-0.3740153970137416,"lat":39.45039125246078},"update_jcd":1734714690}},{"type":"Feature","geometry":{"coordinates":[-0.3751583239336074,39.44462122517277],"type":"Point"},"properties":{"address":"Hospital Nueva Fe (consultas externas)","number":188,"open":"T","available":2,"free":38,"total":40,"ticket":"F","updated_at":"20\/12\/2024 17:19:51","geo_point_2d":{"lon":-0.3751583239336074,"lat":39.44462122517277},"update_jcd":1734715052}},{"type":"Feature","geometry":{"coordinates":[-0.37886641388495107,39.45032925434954],"type":"Point"},"properties":{"address":"Esparraguera - Cra. Malilla","number":191,"open":"T","available":3,"free":12,"total":15,"ticket":"F","updated_at":"20\/12\/2024 17:19:51","geo_point_2d":{"lon":-0.37886641388495107,"lat":39.45032925434954},"update_jcd":1734715160}},{"type":"Feature","geometry":{"coordinates":[-0.4072175039832668,39.45955629873093],"type":"Point"},"properties":{"address":"Traginers - Pedrapiquers","number":260,"open":"T","available":15,"free":5,"total":20,"ticket":"F","updated_at":"20\/12\/2024 17:19:51","geo_point_2d":{"lon":-0.4072175039832668,"lat":39.45955629873093},"update_jcd":1734715138}},{"type":"Feature","geometry":{"coordinates":[-0.40114246019172434,39.488107390420495],"type":"Point"},"properties":{"address":"Padre Barranco - Carlos Ruano Llopis (Pintor)","number":225,"open":"T","available":11,"free":9,"total":20,"ticket":"F","updated_at":"20\/12\/2024 17:19:51","geo_point_2d":{"lon":-0.40114246019172434,"lat":39.488107390420495},"update_jcd":1734714969}},{"type":"Feature","geometry":{"coordinates":[-0.4055734914728698,39.467410323935766],"type":"Point"},"properties":{"address":"Tres Cruces - M\u00fasico Ayll\u00f3n","number":247,"open":"T","available":12,"free":3,"total":15,"ticket":"F","updated_at":"20\/12\/2024 17:19:51","geo_point_2d":{"lon":-0.4055734914728698,"lat":39.467410323935766},"update_jcd":1734714986}},{"type":"Feature","geometry":{"coordinates":[-0.4059294716064297,39.49416841275147],"type":"Point"},"properties":{"address":"Beniferri - Vicent Tom\u00e1s Mart\u00ed","number":267,"open":"T","available":1,"free":15,"total":16,"ticket":"F","updated_at":"20\/12\/2024 17:19:51","geo_point_2d":{"lon":-0.4059294716064297,"lat":39.49416841275147},"update_jcd":1734715123}},{"type":"Feature","geometry":{"coordinates":[-0.35037729588168837,39.47667632834523],"type":"Point"},"properties":{"address":"Plaza Xuquer - Vinalop\u00f3","number":261,"open":"T","available":13,"free":6,"total":19,"ticket":"F","updated_at":"20\/12\/2024 17:19:51","geo_point_2d":{"lon":-0.35037729588168837,"lat":39.47667632834523},"update_jcd":1734714815}},{"type":"Feature","geometry":{"coordinates":[-0.40922550688289966,39.463472312903384],"type":"Point"},"properties":{"address":"Tres Forques - Colonia Espa\u00f1ola de Mexico","number":262,"open":"T","available":1,"free":19,"total":20,"ticket":"F","updated_at":"20\/12\/2024 17:19:51","geo_point_2d":{"lon":-0.40922550688289966,"lat":39.463472312903384},"update_jcd":1734714670}},{"type":"Feature","geometry":{"coordinates":[-0.4065094941412157,39.469090330003425],"type":"Point"},"properties":{"address":"Tres Cruces - Hospital General","number":246,"open":"T","available":5,"free":15,"total":20,"ticket":"F","updated_at":"20\/12\/2024 17:19:51","geo_point_2d":{"lon":-0.4065094941412157,"lat":39.469090330003425},"update_jcd":1734714955}},{"type":"Feature","geometry":{"coordinates":[-0.40637147642320165,39.49028940014262],"type":"Point"},"properties":{"address":"Canal de Navarr\u00e9s - Maestro Rodrigo","number":266,"open":"T","available":6,"free":12,"total":18,"ticket":"F","updated_at":"20\/12\/2024 17:19:51","geo_point_2d":{"lon":-0.40637147642320165,"lat":39.49028940014262},"update_jcd":1734713564}},{"type":"Feature","geometry":{"coordinates":[-0.38989141267304944,39.49927942267903],"type":"Point"},"properties":{"address":"Salvador Cerver\u00f3 - Carlos Cortina","number":271,"open":"T","available":7,"free":8,"total":15,"ticket":"F","updated_at":"20\/12\/2024 17:19:51","geo_point_2d":{"lon":-0.38989141267304944,"lat":39.49927942267903},"update_jcd":1734714906}},{"type":"Feature","geometry":{"coordinates":[-0.3350652633218127,39.45230524022502],"type":"Point"},"properties":{"address":"Moreras - Rona de Nazaret","number":275,"open":"T","available":4,"free":16,"total":20,"ticket":"F","updated_at":"20\/12\/2024 17:19:51","geo_point_2d":{"lon":-0.3350652633218127,"lat":39.45230524022502},"update_jcd":1734715006}},{"type":"Feature","geometry":{"coordinates":[-0.32376521655842594,39.46197526682713],"type":"Point"},"properties":{"address":"Veles e Vents","number":276,"open":"T","available":9,"free":11,"total":20,"ticket":"F","updated_at":"20\/12\/2024 17:19:51","geo_point_2d":{"lon":-0.32376521655842594,"lat":39.46197526682713},"update_jcd":1734715137}},{"type":"Feature","geometry":{"coordinates":[-0.4011014879360589,39.45272627278094],"type":"Point"},"properties":{"address":"Jos\u00e9 Meli\u00e1 Castell\u00f3 - Campos Crespo","number":253,"open":"T","available":6,"free":9,"total":15,"ticket":"F","updated_at":"20\/12\/2024 17:19:51","geo_point_2d":{"lon":-0.4011014879360589,"lat":39.45272627278094},"update_jcd":1734714750}},{"type":"Feature","geometry":{"coordinates":[-0.38602944085901075,39.447703249066144],"type":"Point"},"properties":{"address":"Tomas de Villarroya - San Vicente","number":255,"open":"T","available":4,"free":14,"total":18,"ticket":"F","updated_at":"20\/12\/2024 17:19:51","geo_point_2d":{"lon":-0.38602944085901075,"lat":39.447703249066144},"update_jcd":1734714854}},{"type":"Feature","geometry":{"coordinates":[-0.3965874461307865,39.485843380594176],"type":"Point"},"properties":{"address":"Corts Valencianes - General Avil\u00e9s","number":204,"open":"T","available":4,"free":16,"total":20,"ticket":"F","updated_at":"20\/12\/2024 17:19:51","geo_point_2d":{"lon":-0.3965874461307865,"lat":39.485843380594176},"update_jcd":1734715153}},{"type":"Feature","geometry":{"coordinates":[-0.38900741524280136,39.49271239990425],"type":"Point"},"properties":{"address":"Periodista Gil Sumbiela - Poeta Serrano Clavero","number":206,"open":"T","available":4,"free":11,"total":15,"ticket":"F","updated_at":"20\/12\/2024 17:19:51","geo_point_2d":{"lon":-0.38900741524280136,"lat":39.49271239990425},"update_jcd":1734714921}},{"type":"Feature","geometry":{"coordinates":[-0.40039647823746194,39.46148430130945],"type":"Point"},"properties":{"address":"Fray Juan\u00edpero Serra - Torrente","number":212,"open":"T","available":5,"free":10,"total":15,"ticket":"F","updated_at":"20\/12\/2024 17:19:51","geo_point_2d":{"lon":-0.40039647823746194,"lat":39.46148430130945},"update_jcd":1734714780}},{"type":"Feature","geometry":{"coordinates":[-0.381905420300487,39.45539327294658],"type":"Point"},"properties":{"address":"Giorgeta, 64","number":207,"open":"T","available":8,"free":7,"total":15,"ticket":"F","updated_at":"20\/12\/2024 17:19:51","geo_point_2d":{"lon":-0.381905420300487,"lat":39.45539327294658},"update_jcd":1734715024}},{"type":"Feature","geometry":{"coordinates":[-0.40459648652865626,39.47032833321364],"type":"Point"},"properties":{"address":"Pintor Stolz - Nueve de Octubre","number":217,"open":"T","available":1,"free":24,"total":25,"ticket":"F","updated_at":"20\/12\/2024 17:19:51","geo_point_2d":{"lon":-0.40459648652865626,"lat":39.47032833321364},"update_jcd":1734714955}},{"type":"Feature","geometry":{"coordinates":[-0.40303029799024204,39.47265724610551],"type":"Point"},"properties":{"address":"Cast\u00e1n Tobe\u00f1as - Rincon de Ademuz","number":219,"open":"T","available":0,"free":18,"total":18,"ticket":"F","updated_at":"20\/12\/2024 17:19:51","geo_point_2d":{"lon":-0.40303029799024204,"lat":39.47265724610551},"update_jcd":1734715087}},{"type":"Feature","geometry":{"coordinates":[-0.4028534760386356,39.475270348637764],"type":"Point"},"properties":{"address":"Manuel de Falla - Hern\u00e1ndez L\u00e1zaro","number":221,"open":"T","available":2,"free":18,"total":20,"ticket":"F","updated_at":"20\/12\/2024 17:19:51","geo_point_2d":{"lon":-0.4028534760386356,"lat":39.475270348637764},"update_jcd":1734714612}},{"type":"Feature","geometry":{"coordinates":[-0.3786213772644184,39.49507240298451],"type":"Point"},"properties":{"address":"Alca\u00f1iz - Cambrils","number":231,"open":"T","available":1,"free":14,"total":15,"ticket":"F","updated_at":"20\/12\/2024 17:19:51","geo_point_2d":{"lon":-0.3786213772644184,"lat":39.49507240298451},"update_jcd":1734714739}},{"type":"Feature","geometry":{"coordinates":[-0.36943734517384297,39.497160406039164],"type":"Point"},"properties":{"address":"San Juan Bosco - Santiago Rusi\u00f1ol","number":233,"open":"T","available":1,"free":14,"total":15,"ticket":"F","updated_at":"20\/12\/2024 17:19:51","geo_point_2d":{"lon":-0.36943734517384297,"lat":39.497160406039164},"update_jcd":1734715081}},{"type":"Feature","geometry":{"coordinates":[-0.39438342966293366,39.497449418355934],"type":"Point"},"properties":{"address":"San Jose Artesano - Francisco Morote Greus","number":238,"open":"T","available":5,"free":9,"total":15,"ticket":"F","updated_at":"20\/12\/2024 17:19:51","geo_point_2d":{"lon":-0.39438342966293366,"lat":39.497449418355934},"update_jcd":1734715123}},{"type":"Feature","geometry":{"coordinates":[-0.39996444953107335,39.4969854198013],"type":"Point"},"properties":{"address":"Florista - T4 (Palau de Congressos)","number":239,"open":"T","available":16,"free":4,"total":20,"ticket":"F","updated_at":"20\/12\/2024 17:19:51","geo_point_2d":{"lon":-0.39996444953107335,"lat":39.4969854198013},"update_jcd":1734714772}},{"type":"Feature","geometry":{"coordinates":[-0.4018904586642118,39.49297840711153],"type":"Point"},"properties":{"address":"La Vall d'Albaida - Corts Valencianes","number":241,"open":"T","available":15,"free":0,"total":15,"ticket":"F","updated_at":"20\/12\/2024 17:19:51","geo_point_2d":{"lon":-0.4018904586642118,"lat":39.49297840711153},"update_jcd":1734714487}},{"type":"Feature","geometry":{"coordinates":[-0.3845424236611566,39.46282029901061],"type":"Point"},"properties":{"address":"Albacete - Maluquer","number":243,"open":"T","available":13,"free":5,"total":18,"ticket":"F","updated_at":"20\/12\/2024 17:19:51","geo_point_2d":{"lon":-0.3845424236611566,"lat":39.46282029901061},"update_jcd":1734714722}}]}